~Version Information Block
 VERS.                2.00:     CWLS LOG ASCII STANDARD - VERSION 2.000000
 WRAP.                  NO:     One Line Per Depth Step
#
~Well Information Block
#MNEM.UNIT                     Data                         Information
#----------   ------------------------------------------   ----------------
 STRT.FT                                      100.0000:
 STOP.FT                                     5300.0000:
 STEP.FT                                        0.5000:
 NULL.                                       -999.2500:
 COMP.                                                :     COMPANY
 WELL.                                                :     WELL
 FLD .                                                :     FIELD
 CNTY.                                                :     COUNTY
 STAT.                                                :     STATE
 CTRY.                                                :     COUNTRY
 SRVC.                                                :     SERVICE COMPANY
 DATE.                                                :     DATE
 API .                                                :     API NUMBER
 UWI .                                                :     UWI NUMBER
#
~Curve Information Block
#MNEM.UNIT       API CODE      Curve Description
#----------    -------------   -------------------
 DEPT.FT                   :   Depth in Feet
 GR  .GAPI                 :   Gamma Ray
 RHOB.G/C3                 :   Bulk Density
#
~A  DEPTH         GR       RHOB  
# ...
  3522.000    102.269      2.648 
  3522.500    102.819      2.631 
  3523.000    100.530      2.584 
  3523.500     90.534      2.569 
  3524.000     87.839      2.695 
  3524.500     88.934      2.674 
  3525.000     98.906      2.619 
  3525.500    109.391      2.455 
  3526.000    107.192      2.468 
  3526.500     99.820      2.525 
  3527.000     95.210      2.617 
  3527.500     92.529      2.645 
  3528.000     83.775      2.659 
  3528.500     79.593      2.643 
  3529.000     73.656      2.627 
  3529.500     63.755      2.603 
  3530.000     54.459      2.607 
  3530.500     43.743      2.615 
  3531.000     44.122      2.616 
  3531.500     48.690      2.615 
  3532.000     53.288      2.620 
  3532.500     59.166      2.629 
  3533.000     60.150      2.621 
  3533.500     63.231      2.617 
  3534.000     65.831      2.633 
  3534.500     66.579      2.642 
  3535.000     62.358      2.639 
  3535.500     55.117      2.635 
  3536.000     52.147      2.630 
  3536.500     59.168      2.643 
  3537.000     64.902      2.720 
  3537.500     93.109      2.692 
  3538.000    105.153      2.606 
  3538.500    112.792      2.380 
  3539.000    107.662      2.301 
  3539.500     96.807      2.352 
  3540.000     90.887      2.417 
  3540.500     71.691      2.538 
  3541.000     71.728      2.565 
  3541.500     69.685      2.562 
  3542.000     64.846      2.567 
  3542.500     61.916      2.606 
  3543.000     58.749      2.613 
  3543.500     56.703      2.617 
  3544.000     58.272      2.618 
  3544.500     60.571      2.622 
  3545.000     61.796      2.634 
  3545.500     60.327      2.642 
  3546.000     59.422      2.646 
  3546.500     59.721      2.649 
  3547.000     60.418      2.661 
  3547.500     71.239      2.655 
  3548.000     83.887      2.607 
  3548.500    112.330      2.484 
  3549.000    116.077      2.477 
  3549.500    122.025      2.479 
  3550.000    126.346      2.544 
  3550.500    129.094      2.535 
  3551.000    129.396      2.476 
  3551.500    125.871      2.491 
  3552.000    112.510      2.542 
  3552.500    105.864      2.621 
  3553.000     99.058      2.654 
  3553.500     94.088      2.666 
  3554.000     78.641      2.670 
  3554.500     75.073      2.671 
  3555.000     75.216      2.671 
  3555.500     77.674      2.676 
  3556.000     85.283      2.689 
  3556.500     90.250      2.678 
  3557.000     87.801      2.632 
  3557.500     87.845      2.602 
  3558.000     88.387      2.643 
  3558.500     94.691      2.692 
  3559.000    103.867      2.548 
  3559.500    103.972      2.514 
  3560.000    103.028      2.244 
  3560.500     88.622      2.264 
  3561.000     79.608      2.505 
  3561.500     75.996      2.540 
  3562.000     75.187      2.620 
  3562.500     77.968      2.650 
  3563.000     79.611      2.668 
  3563.500     84.439      2.712 
  3564.000     90.696      2.744 
  3564.500    102.767      2.638 
  3565.000    102.212      2.566 
  3565.500     96.675      2.521 
  3566.000     90.752      2.601 
  3566.500     72.337      2.636 
  3567.000     63.527      2.636 
  3567.500     54.944      2.630 
  3568.000     53.275      2.624 
  3568.500     52.128      2.619 
  3569.000     52.453      2.614 
  3569.500     53.323      2.607 
  3570.000     52.477      2.611 
  3570.500     53.790      2.629 
  3571.000     54.790      2.634 
  3571.500     57.065      2.640 
  3572.000     58.775      2.639 
  3572.500     59.474      2.638 
  3573.000     59.014      2.642 
  3573.500     53.138      2.644 
  3574.000     49.385      2.644 
  3574.500     47.103      2.635 
  3575.000     46.446      2.626 
  3575.500     46.497      2.616 
  3576.000     50.382      2.609 
  3576.500     60.120      2.609 
  3577.000     79.182      2.617 
  3577.500     83.564      2.622 
  3578.000     79.634      2.637 
  3578.500     70.165      2.645 
  3579.000     62.895      2.658 
  3579.500     61.031      2.653 
  3580.000     61.813      2.650 
  3580.500     69.093      2.666 
  3581.000     84.787      2.699 
  3581.500     94.285      2.701 
  3582.000    101.998      2.662 
  3582.500    101.923      2.542 
  3583.000     98.473      2.533 
  3583.500     94.749      2.546 
  3584.000     84.989      2.576 
  3584.500     75.709      2.600 
  3585.000     65.159      2.630 
  3585.500     60.583      2.629 
  3586.000     54.389      2.626 
  3586.500     48.654      2.618 
  3587.000     46.670      2.612 
  3587.500     46.984      2.619 
  3588.000     49.258      2.625 
  3588.500     51.569      2.634 
  3589.000     54.090      2.634 
  3589.500     58.753      2.637 
  3590.000     58.653      2.638 
  3590.500     77.995      2.649 
  3591.000     92.218      2.659 
  3591.500     95.081      2.676 
  3592.000     94.705      2.676 
  3592.500     88.891      2.670 
  3593.000     85.967      2.664 
  3593.500     82.210      2.661 
  3594.000     80.858      2.658 
  3594.500     81.399      2.655 
  3595.000     83.398      2.658 
  3595.500     84.431      2.663 
  3596.000     84.436      2.664 
  3596.500     81.435      2.667 
  3597.000     77.183      2.671 
  3597.500     74.708      2.677 
  3598.000     73.816      2.677 
  3598.500     76.848      2.668 
  3599.000     81.160      2.668 
  3599.500     86.250      2.668 
  3600.000     94.519      2.680 
  3600.500    108.454      2.691 
  3601.000    118.534      2.700 
  3601.500    120.035      2.708 
  3602.000    114.640      2.676 
  3602.500    111.994      2.603 
  3603.000     95.940      2.552 
  3603.500     84.646      2.568 
  3604.000     71.525      2.637 
  3604.500     66.321      2.664 
  3605.000     67.522      2.666 
  3605.500     67.893      2.667 
  3606.000     71.574      2.666 
  3606.500     76.521      2.660 
  3607.000     80.480      2.650 
  3607.500     84.310      2.647 
  3608.000     87.037      2.646 
  3608.500     87.075      2.646 
  3609.000     87.554      2.646 
  3609.500     88.258      2.647 
  3610.000     85.569      2.646 
  3610.500     78.803      2.644 
  3611.000     73.123      2.636 
  3611.500     67.257      2.636 
  3612.000     61.539      2.636 
  3612.500     52.431      2.636 
  3613.000     48.375      2.636 
  3613.500     46.901      2.641 
  3614.000     49.657      2.646 
  3614.500     56.309      2.646 
  3615.000     67.475      2.644 
  3615.500     75.381      2.648 
  3616.000     78.239      2.651 
  3616.500     77.149      2.652 
  3617.000     78.128      2.651 
  3617.500     78.097      2.647 
  3618.000     75.820      2.640 
  3618.500     70.560      2.630 
  3619.000     68.906      2.630 
  3619.500     70.358      2.632 
  3620.000     71.411      2.640 
  3620.500     74.090      2.651 
  3621.000     76.563      2.652 
  3621.500     79.095      2.647 
  3622.000     81.428      2.642 
  3622.500     81.460      2.641 
  3623.000     81.640      2.652 
  3623.500     80.818      2.660 
  3624.000     80.846      2.678 
  3624.500     80.092      2.673 
  3625.000     79.403      2.662 
  3625.500     76.937      2.647 
  3626.000     71.199      2.642 
  3626.500     67.006      2.645 
  3627.000     60.450      2.648 
  3627.500     62.017      2.657 
  3628.000     65.128      2.660 
  3628.500     68.499      2.653 
  3629.000     71.503      2.650 
  3629.500     73.735      2.644 
  3630.000     74.584      2.646 
  3630.500     75.682      2.653 
  3631.000     75.593      2.654 
  3631.500     75.247      2.652 
  3632.000     74.362      2.633 
  3632.500     71.918      2.630 
  3633.000     70.648      2.641 
  3633.500     69.859      2.648 
  3634.000     69.650      2.668 
  3634.500     69.590      2.677 
  3635.000     70.554      2.691 
  3635.500     72.913      2.695 
  3636.000     74.338      2.688 
  3636.500     77.302      2.673 
  3637.000     79.150      2.656 
  3637.500     80.827      2.651 
  3638.000     81.336      2.656 
  3638.500     80.777      2.667 
  3639.000     79.545      2.672 
  3639.500     78.281      2.673 
