~Version Information Block
 VERS.                2.00:     CWLS LOG ASCII STANDARD - VERSION 2.000000
 WRAP.                  NO:     One Line Per Depth Step
#
~Well Information Block
#MNEM.UNIT                     Data                         Information
#----------   ------------------------------------------   ----------------
 STRT.FT                                      100.0000:
 STOP.FT                                     5300.0000:
 STEP.FT                                        0.5000:
 NULL.                                       -999.2500:
 COMP.                                                :     COMPANY
 WELL.                                                :     WELL
 FLD .                                                :     FIELD
 CNTY.                                                :     COUNTY
 STAT.                                                :     STATE
 CTRY.                                                :     COUNTRY
 SRVC.                                                :     SERVICE COMPANY
 DATE.                                                :     DATE
 API .                                                :     API NUMBER
 UWI .                                                :     UWI NUMBER
#
~Curve Information Block
#MNEM.UNIT       API CODE      Curve Description
#----------    -------------   -------------------
 DEPT.FT                   :   Depth in Feet
 GR  .GAPI                 :   Gamma Ray
 RHOB.G/C3                 :   Bulk Density
#
~A  DEPTH         GR       RHOB  
# ...
  3876.000     64.968      2.656 
  3876.500     65.490      2.652 
  3877.000     64.761      2.649 
  3877.500     65.546      2.647 
  3878.000     64.586      2.642 
  3878.500     65.373      2.633 
  3879.000     67.972      2.627 
  3879.500     71.081      2.624 
  3880.000     74.460      2.626 
  3880.500     77.198      2.636 
  3881.000     79.045      2.644 
  3881.500     79.190      2.649 
  3882.000     78.712      2.650 
  3882.500     76.460      2.651 
  3883.000     76.028      2.651 
  3883.500     75.780      2.652 
  3884.000     76.884      2.660 
  3884.500     75.391      2.680 
  3885.000     75.122      2.685 
  3885.500     72.048      2.687 
  3886.000     71.244      2.674 
  3886.500     70.441      2.657 
  3887.000     72.126      2.651 
  3887.500     72.825      2.649 
  3888.000     71.197      2.648 
  3888.500     69.644      2.650 
  3889.000     68.966      2.655 
  3889.500     69.722      2.663 
  3890.000     69.729      2.664 
  3890.500     69.108      2.671 
  3891.000     70.052      2.682 
  3891.500     71.903      2.694 
  3892.000     75.664      2.701 
  3892.500     78.568      2.682 
  3893.000     81.348      2.671 
  3893.500     89.244      2.677 
  3894.000     95.421      2.689 
  3894.500     94.713      2.693 
  3895.000     91.858      2.688 
  3895.500     78.653      2.682 
  3896.000     74.789      2.679 
  3896.500     78.375      2.677 
  3897.000     86.354      2.680 
  3897.500     94.861      2.682 
  3898.000    102.227      2.682 
  3898.500    103.605      2.670 
  3899.000    101.597      2.665 
  3899.500     97.126      2.662 
  3900.000     87.048      2.659 
  3900.500     79.266      2.654 
  3901.000     66.950      2.650 
  3901.500     66.247      2.648 
  3902.000     64.447      2.644 
  3902.500     63.874      2.649 
  3903.000     65.689      2.649 
  3903.500     69.337      2.651 
  3904.000     75.520      2.660 
  3904.500     78.806      2.680 
  3905.000     85.090      2.688 
  3905.500     87.808      2.686 
  3906.000     90.789      2.674 
  3906.500     92.785      2.663 
  3907.000     89.160      2.661 
  3907.500     84.293      2.665 
  3908.000     68.025      2.668 
  3908.500     53.209      2.654 
  3909.000     54.887      2.646 
  3909.500     55.316      2.633 
  3910.000     66.033      2.538 
  3910.500     72.475      2.410 
  3911.000     73.066      2.378 
  3911.500     68.562      2.450 
  3912.000     64.845      2.529 
  3912.500     63.244      2.610 
  3913.000     65.187      2.657 
  3913.500     75.790      2.660 
  3914.000     79.999      2.666 
  3914.500     84.892      2.675 
  3915.000     86.108      2.675 
  3915.500     79.962      2.670 
  3916.000     75.858      2.668 
  3916.500     66.915      2.664 
  3917.000     68.222      2.651 
  3917.500     68.036      2.641 
  3918.000     71.599      2.631 
  3918.500     76.597      2.629 
  3919.000     79.389      2.629 
  3919.500     80.031      2.634 
  3920.000     77.837      2.642 
  3920.500     72.208      2.659 
  3921.000     69.496      2.669 
  3921.500     67.980      2.675 
  3922.000     68.776      2.679 
  3922.500     69.772      2.676 
  3923.000     67.377      2.665 
  3923.500     61.470      2.654 
  3924.000     57.790      2.652 
  3924.500     58.123      2.662 
  3925.000     57.977      2.675 
  3925.500     65.751      2.677 
  3926.000     69.945      2.671 
  3926.500     73.730      2.666 
  3927.000     72.945      2.677 
  3927.500     71.498      2.693 
  3928.000     69.702      2.698 
  3928.500     65.085      2.679 
  3929.000     59.785      2.649 
  3929.500     58.668      2.639 
  3930.000     62.585      2.640 
  3930.500     74.359      2.651 
  3931.000     79.206      2.652 
  3931.500     79.896      2.652 
  3932.000     72.573      2.649 
  3932.500     56.479      2.646 
  3933.000     57.204      2.641 
  3933.500     54.104      2.637 
  3934.000     67.042      2.647 
  3934.500     71.152      2.658 
  3935.000     78.748      2.649 
  3935.500     80.879      2.638 
  3936.000     79.805      2.627 
  3936.500     76.808      2.646 
  3937.000     67.313      2.650 
  3937.500     61.899      2.643 
  3938.000     55.357      2.640 
  3938.500     53.775      2.636 
  3939.000     55.736      2.633 
  3939.500     60.672      2.627 
  3940.000     64.316      2.627 
  3940.500     64.092      2.640 
  3941.000     60.683      2.650 
  3941.500     52.494      2.654 
  3942.000     47.617      2.654 
  3942.500     48.112      2.660 
  3943.000     50.499      2.665 
  3943.500     58.606      2.661 
  3944.000     61.432      2.651 
  3944.500     68.424      2.643 
  3945.000     70.378      2.640 
  3945.500     69.929      2.647 
  3946.000     66.734      2.646 
  3946.500     61.347      2.638 
  3947.000     60.879      2.635 
  3947.500     61.211      2.641 
  3948.000     63.327      2.646 
  3948.500     61.729      2.651 
  3949.000     60.926      2.647 
  3949.500     58.344      2.645 
  3950.000     56.259      2.645 
  3950.500     59.196      2.647 
  3951.000     61.766      2.647 
  3951.500     61.325      2.640 
  3952.000     59.831      2.634 
  3952.500     58.589      2.631 
  3953.000     57.811      2.636 
  3953.500     57.548      2.636 
  3954.000     58.453      2.639 
  3954.500     58.729      2.643 
  3955.000     60.977      2.650 
  3955.500     62.499      2.654 
  3956.000     68.281      2.658 
  3956.500     74.180      2.659 
  3957.000     76.461      2.666 
  3957.500     79.180      2.667 
  3958.000     79.416      2.662 
  3958.500     73.594      2.611 
  3959.000     69.124      2.580 
  3959.500     58.825      2.585 
  3960.000     51.704      2.605 
  3960.500     47.755      2.616 
  3961.000     49.103      2.618 
  3961.500     55.524      2.624 
  3962.000     64.732      2.627 
  3962.500     69.642      2.634 
  3963.000     67.356      2.636 
  3963.500     65.606      2.639 
  3964.000     64.208      2.643 
  3964.500     65.015      2.645 
  3965.000     67.988      2.646 
  3965.500     70.636      2.650 
  3966.000     73.034      2.649 
  3966.500     73.681      2.640 
  3967.000     72.814      2.635 
  3967.500     69.679      2.632 
  3968.000     67.259      2.649 
  3968.500     67.980      2.656 
  3969.000     68.341      2.644 
  3969.500     68.356      2.634 
  3970.000     67.285      2.622 
  3970.500     61.836      2.642 
  3971.000     61.304      2.646 
  3971.500     59.560      2.643 
  3972.000     59.835      2.629 
  3972.500     58.466      2.621 
  3973.000     58.092      2.617 
  3973.500     58.159      2.616 
  3974.000     59.646      2.617 
  3974.500     61.950      2.620 
  3975.000     62.633      2.618 
  3975.500     63.419      2.647 
  3976.000     65.572      2.711 
  3976.500     72.765      2.696 
  3977.000     79.052      2.633 
  3977.500     80.518      2.590 
  3978.000     77.906      2.557 
  3978.500     72.502      2.590 
  3979.000     69.108      2.616 
  3979.500     68.765      2.618 
  3980.000     64.319      2.626 
  3980.500     57.703      2.644 
  3981.000     54.961      2.635 
  3981.500     56.940      2.632 
  3982.000     62.235      2.629 
  3982.500     81.781      2.622 
  3983.000     88.309      2.622 
  3983.500     92.408      2.625 
  3984.000     89.743      2.658 
  3984.500     87.969      2.740 
  3985.000     90.063      2.717 
  3985.500    101.039      2.700 
  3986.000    111.292      2.480 
  3986.500    127.069      2.489 
  3987.000    126.677      2.502 
  3987.500    124.699      2.510 
  3988.000    113.289      2.487 
  3988.500     96.102      2.503 
  3989.000     75.650      2.654 
  3989.500     65.320      2.679 
  3990.000     57.771      2.747 
  3990.500     54.804      2.603 
  3991.000     54.415      2.515 
  3991.500     57.581      2.533 
  3992.000     62.375      2.580 
  3992.500     70.835      2.621 
  3993.000     76.931      2.634 
  3993.500     78.712      2.653 
