~Version Information Block
 VERS.                2.00:     CWLS LOG ASCII STANDARD - VERSION 2.000000
 WRAP.                  NO:     One Line Per Depth Step
#
~Well Information Block
#MNEM.UNIT                     Data                         Information
#----------   ------------------------------------------   ----------------
 STRT.FT                                      100.0000:
 STOP.FT                                     5300.0000:
 STEP.FT                                        0.5000:
 NULL.                                       -999.2500:
 COMP.                                                :     COMPANY
 WELL.                                                :     WELL
 FLD .                                                :     FIELD
 CNTY.                                                :     COUNTY
 STAT.                                                :     STATE
 CTRY.                                                :     COUNTRY
 SRVC.                                                :     SERVICE COMPANY
 DATE.                                                :     DATE
 API .                                                :     API NUMBER
 UWI .                                                :     UWI NUMBER
#
~Curve Information Block
#MNEM.UNIT       API CODE      Curve Description
#----------    -------------   -------------------
 DEPT.FT                   :   Depth in Feet
 GR  .GAPI                 :   Gamma Ray
 RHOB.G/C3                 :   Bulk Density
#
~A  DEPTH         GR       RHOB  
# ...
  5174.000    135.156      2.464 
  5174.500    137.190      2.439 
  5175.000    134.426      2.449 
  5175.500    129.263      2.417 
  5176.000    127.400      2.193 
  5176.500    125.833      2.275 
  5177.000    125.582      2.085 
  5177.500    125.422      2.426 
  5178.000    126.300      2.540 
  5178.500    129.549      2.464 
  5179.000    134.794      2.356 
  5179.500    136.740      2.354 
  5180.000    141.730      2.414 
  5180.500    142.720      2.503 
  5181.000    143.120      2.607 
  5181.500    141.232      2.637 
  5182.000    138.124      2.626 
  5182.500    133.870      2.432 
  5183.000    131.878      2.375 
  5183.500    130.421      2.235 
  5184.000    130.535      2.155 
  5184.500    133.189      1.993 
  5185.000    136.797      1.995 
  5185.500    140.220      1.615 
  5186.000    135.901      1.652 
  5186.500    130.734      1.995 
  5187.000    125.338      2.172 
  5187.500    123.405      2.168 
  5188.000    121.613      1.995 
  5188.500    120.817      1.548 
  5189.000    120.819      1.893 
  5189.500    121.087      2.048 
  5190.000    123.065      2.266 
  5190.500    126.645      2.275 
  5191.000    131.491      2.285 
  5191.500    140.871      2.303 
  5192.000    152.858      2.368 
  5192.500    156.952      2.211 
  5193.000    150.632      2.099 
  5193.500    143.701      2.060 
  5194.000    130.853      2.134 
  5194.500    123.676      2.146 
  5195.000    123.154      2.058 
  5195.500    125.166      2.071 
  5196.000    126.481      2.106 
  5196.500    127.731      2.318 
  5197.000    126.383      2.310 
  5197.500    124.164      2.314 
  5198.000    123.184      2.282 
  5198.500    124.886      2.376 
  5199.000    125.825      2.398 
  5199.500    126.357      2.409 
  5200.000    127.022      2.400 
  5200.500    127.062      2.376 
  5201.000    127.852      2.283 
  5201.500    127.924      2.285 
  5202.000    127.827      2.302 
  5202.500    127.077      2.299 
  5203.000    127.288      2.281 
  5203.500    128.786      2.276 
  5204.000    130.767      2.372 
  5204.500    133.849      2.420 
  5205.000    134.405      2.456 
  5205.500    132.958      2.464 
  5206.000    130.386      2.409 
  5206.500    127.364      2.039 
  5207.000    126.441      1.921 
  5207.500    125.485      1.789 
  5208.000    125.560      1.599 
  5208.500    125.714      1.664 
  5209.000    124.390      1.623 
  5209.500    123.489      2.003 
  5210.000    124.724      2.064 
  5210.500    126.550      2.505 
  5211.000    128.440      2.726 
  5211.500    124.601      2.725 
  5212.000    120.241      2.624 
  5212.500    119.018      2.456 
  5213.000    120.725      2.505 
  5213.500    120.673      2.663 
  5214.000    121.478      2.725 
  5214.500    120.144      2.649 
  5215.000    120.165      2.594 
  5215.500    121.152      2.514 
  5216.000    121.573      2.444 
  5216.500    123.250      2.401 
  5217.000    124.995      2.499 
  5217.500    126.126      2.615 
  5218.000    127.199      2.777 
  5218.500    126.353      2.739 
  5219.000    125.314      2.642 
  5219.500    125.448      2.462 
  5220.000    127.447      2.367 
  5220.500    129.462      2.381 
  5221.000    129.419      2.358 
  5221.500    128.035      2.342 
  5222.000    128.670      2.409 
  5222.500    130.733      2.368 
  5223.000    131.832      2.632 
  5223.500    131.347      2.628 
  5224.000    127.665      2.540 
  5224.500    122.763      2.391 
  5225.000    120.763      2.426 
  5225.500    120.145      2.475 
  5226.000    119.374      2.489 
  5226.500    119.863      2.423 
  5227.000    120.588      2.373 
  5227.500    121.864      2.466 
  5228.000    123.468      2.459 
  5228.500    124.750      2.442 
  5229.000    125.905      2.433 
  5229.500    123.578      2.420 
  5230.000    121.429      2.457 
  5230.500    117.450      2.583 
  5231.000    113.890      2.658 
  5231.500    114.285      2.689 
  5232.000    116.233      2.701 
  5232.500    118.832      2.676 
  5233.000    120.103      2.577 
  5233.500    120.823      2.514 
  5234.000    121.588      2.473 
  5234.500    123.295      2.506 
  5235.000    124.219      2.501 
  5235.500    125.098      2.520 
  5236.000    127.640      2.509 
  5236.500    129.671      2.517 
  5237.000    129.447      2.450 
  5237.500    127.542      2.283 
  5238.000    125.915      2.391 
  5238.500    123.192      2.470 
  5239.000    120.934      2.456 
  5239.500    120.126      2.293 
  5240.000    119.429      2.207 
  5240.500    119.889      2.479 
  5241.000    119.048      2.462 
  5241.500    116.015      2.456 
  5242.000    114.509      2.332 
  5242.500    114.378      2.217 
  5243.000    116.043      2.413 
  5243.500    117.069      2.489 
  5244.000    118.382      2.472 
  5244.500    119.094      2.371 
  5245.000    120.788      2.309 
  5245.500    120.014      2.289 
  5246.000    119.301      2.392 
  5246.500    115.535      2.524 
  5247.000    114.924      2.507 
  5247.500    118.979      2.418 
  5248.000    126.853      2.378 
  5248.500    129.310      2.322 
  5249.000    124.192      2.332 
  5249.500    119.159      2.279 
  5250.000    118.643      2.229 
  5250.500    119.654      2.139 
  5251.000    123.580      2.140 
  5251.500    125.008      2.190 
  5252.000    123.380      2.263 
  5252.500    120.745      2.414 
  5253.000    120.882      2.480 
  5253.500    121.294      2.571 
  5254.000    121.781      2.679 
  5254.500    122.906      2.746 
  5255.000    123.260      2.744 
  5255.500    125.055      2.586 
  5256.000    127.311      2.489 
  5256.500    129.586      2.274 
  5257.000    128.659      2.158 
  5257.500    126.178      2.166 
  5258.000    125.603      2.240 
  5258.500    123.384      2.513 
  5259.000    123.969      2.674 
  5259.500    125.672      2.750 
  5260.000    126.589      2.705 
  5260.500    126.970      2.460 
  5261.000    124.690      2.485 
  5261.500    122.898      2.552 
  5262.000    120.750      2.697 
  5262.500    119.633      2.685 
  5263.000    117.025      2.501 
  5263.500    115.278      2.328 
  5264.000    115.431      2.501 
  5264.500    116.270      2.260 
  5265.000    116.719      2.462 
  5265.500    116.681      2.503 
  5266.000    117.111      2.477 
  5266.500    117.749      2.493 
  5267.000    118.270      2.493 
  5267.500    118.618      2.475 
  5268.000    121.289      2.375 
  5268.500    124.947      2.374 
  5269.000    125.495      2.533 
  5269.500    125.601      2.564 
  5270.000    125.591      2.555 
  5270.500    125.728      2.476 
  5271.000    126.663      2.487 
  5271.500    127.025      2.479 
  5272.000    126.063      2.504 
  5272.500    123.524      2.320 
  5273.000    122.819      2.358 
  5273.500    124.859      2.419 
  5274.000    126.654      2.459 
  5274.500    128.994      2.503 
  5275.000    128.728      2.459 
  5275.500    128.611      2.391 
  5276.000    131.994      2.444 
  5276.500    134.793      2.175 
  5277.000    135.927      2.181 
  5277.500    135.541      2.230 
  5278.000    133.576      2.362 
  5278.500    132.702      2.538 
  5279.000    131.775      2.514 
  5279.500    130.298      2.469 
  5280.000    130.877      2.401 
  5280.500    130.176      2.456 
  5281.000    130.345      2.503 
  5281.500    129.798      2.569 
  5282.000    129.374      2.590 
  5282.500    128.931      2.600 
  5283.000    128.700      2.599 
  5283.500    128.746      2.615 
  5284.000    128.779      2.620 
  5284.500    128.575      2.569 
  5285.000    130.262      2.511 
  5285.500    132.754      2.493 
  5286.000    133.398      2.558 
  5286.500    132.567      2.549 
  5287.000    132.744      2.409 
  5287.500    132.645      2.334 
  5288.000    132.612      2.275 
  5288.500    131.192      2.245 
  5289.000    130.473      2.233 
  5289.500    128.773      2.376 
  5290.000    128.539      2.449 
  5290.500    128.678      2.575 
  5291.000    129.553      2.556 
  5291.500    130.160      2.551 
