~Version Information Block
 VERS.                2.00:     CWLS LOG ASCII STANDARD - VERSION 2.000000
 WRAP.                  NO:     One Line Per Depth Step
#
~Well Information Block
#MNEM.UNIT                     Data                         Information
#----------   ------------------------------------------   ----------------
 STRT.FT                                      100.0000:
 STOP.FT                                     5300.0000:
 STEP.FT                                        0.5000:
 NULL.                                       -999.2500:
 COMP.                                                :     COMPANY
 WELL.                                                :     WELL
 FLD .                                                :     FIELD
 CNTY.                                                :     COUNTY
 STAT.                                                :     STATE
 CTRY.                                                :     COUNTRY
 SRVC.                                                :     SERVICE COMPANY
 DATE.                                                :     DATE
 API .                                                :     API NUMBER
 UWI .                                                :     UWI NUMBER
#
~Curve Information Block
#MNEM.UNIT       API CODE      Curve Description
#----------    -------------   -------------------
 DEPT.FT                   :   Depth in Feet
 GR  .GAPI                 :   Gamma Ray
 RHOB.G/C3                 :   Bulk Density
#
~A  DEPTH         GR       RHOB  
# ...
  2814.000     63.792      2.655 
  2814.500     57.470      2.662 
  2815.000     50.421      2.639 
  2815.500     37.411      2.611 
  2816.000     33.030      2.603 
  2816.500     25.742      2.592 
  2817.000     23.333      2.586 
  2817.500     20.877      2.585 
  2818.000     20.482      2.585 
  2818.500     19.116      2.584 
  2819.000     19.286      2.583 
  2819.500     19.230      2.585 
  2820.000     19.532      2.589 
  2820.500     21.951      2.593 
  2821.000     25.555      2.597 
  2821.500     31.343      2.605 
  2822.000     38.478      2.617 
  2822.500     40.551      2.624 
  2823.000     43.112      2.622 
  2823.500     40.274      2.604 
  2824.000     37.273      2.596 
  2824.500     30.762      2.588 
  2825.000     30.658      2.597 
  2825.500     33.168      2.595 
  2826.000     35.523      2.594 
  2826.500     38.237      2.592 
  2827.000     40.779      2.610 
  2827.500     51.123      2.617 
  2828.000     54.573      2.619 
  2828.500     51.344      2.619 
  2829.000     33.268      2.600 
  2829.500     27.555      2.598 
  2830.000     30.225      2.599 
  2830.500     44.271      2.609 
  2831.000     56.881      2.618 
  2831.500     70.412      2.637 
  2832.000     90.605      2.648 
  2832.500    111.729      2.646 
  2833.000    121.364      2.636 
  2833.500    120.545      2.626 
  2834.000    100.860      2.615 
  2834.500     94.988      2.620 
  2835.000     80.778      2.628 
  2835.500     68.136      2.628 
  2836.000     55.934      2.623 
  2836.500     48.009      2.611 
  2837.000     29.787      2.599 
  2837.500     22.931      2.586 
  2838.000     18.666      2.579 
  2838.500     17.908      2.573 
  2839.000     14.391      2.569 
  2839.500     14.064      2.577 
  2840.000     12.998      2.585 
  2840.500     12.925      2.594 
  2841.000     12.939      2.595 
  2841.500     14.607      2.592 
  2842.000     16.132      2.595 
  2842.500     20.306      2.588 
  2843.000     26.896      2.575 
  2843.500     41.347      2.564 
  2844.000     59.373      2.385 
  2844.500     91.530      2.157 
  2845.000     97.241      2.094 
  2845.500     92.937      2.247 
  2846.000     85.689      2.462 
  2846.500     78.825      2.622 
  2847.000     74.830      2.616 
  2847.500     69.642      2.609 
  2848.000     64.178      2.600 
  2848.500     58.151      2.591 
  2849.000     53.109      2.589 
  2849.500     46.206      2.587 
  2850.000     42.942      2.587 
  2850.500     30.130      2.593 
  2851.000     17.972      2.599 
  2851.500     16.202      2.596 
  2852.000     14.638      2.585 
  2852.500     14.371      2.580 
  2853.000     13.647      2.578 
  2853.500     13.754      2.577 
  2854.000     13.981      2.578 
  2854.500     14.067      2.579 
  2855.000     14.863      2.583 
  2855.500     14.927      2.587 
  2856.000     16.351      2.587 
  2856.500     18.917      2.587 
  2857.000     19.277      2.584 
  2857.500     19.500      2.576 
  2858.000     20.223      2.566 
  2858.500     21.652      2.548 
  2859.000     23.106      2.542 
  2859.500     23.801      2.541 
  2860.000     23.932      2.576 
  2860.500     21.785      2.597 
  2861.000     21.555      2.598 
  2861.500     23.040      2.595 
  2862.000     24.683      2.589 
  2862.500     24.635      2.583 
  2863.000     21.921      2.583 
  2863.500     20.522      2.581 
  2864.000     19.304      2.574 
  2864.500     17.663      2.570 
  2865.000     16.328      2.565 
  2865.500     15.507      2.563 
  2866.000     15.335      2.567 
  2866.500     15.316      2.578 
  2867.000     15.381      2.585 
  2867.500     15.339      2.587 
  2868.000     15.190      2.585 
  2868.500     14.499      2.580 
  2869.000     14.673      2.577 
  2869.500     16.192      2.579 
  2870.000     17.369      2.585 
  2870.500     18.541      2.589 
  2871.000     19.451      2.593 
  2871.500     18.697      2.593 
  2872.000     17.662      2.590 
  2872.500     15.184      2.578 
  2873.000     14.445      2.571 
  2873.500     13.469      2.574 
  2874.000     13.437      2.590 
  2874.500     12.925      2.604 
  2875.000     12.997      2.605 
  2875.500     13.059      2.601 
  2876.000     12.330      2.598 
  2876.500     12.212      2.595 
  2877.000     12.308      2.579 
  2877.500     13.233      2.570 
  2878.000     13.976      2.565 
  2878.500     14.637      2.562 
  2879.000     14.495      2.551 
  2879.500     14.666      2.548 
  2880.000     14.065      2.552 
  2880.500     14.660      2.555 
  2881.000     14.525      2.565 
  2881.500     14.526      2.575 
  2882.000     15.227      2.592 
  2882.500     15.136      2.597 
  2883.000     14.606      2.593 
  2883.500     14.099      2.586 
  2884.000     14.590      2.574 
  2884.500     15.258      2.558 
  2885.000     16.335      2.564 
  2885.500     15.496      2.574 
  2886.000     15.207      2.577 
  2886.500     14.331      2.581 
  2887.000     13.578      2.583 
  2887.500     12.901      2.586 
  2888.000     13.186      2.582 
  2888.500     13.969      2.578 
  2889.000     14.576      2.579 
  2889.500     15.449      2.585 
  2890.000     17.658      2.592 
  2890.500     20.138      2.598 
  2891.000     20.243      2.593 
  2891.500     19.786      2.587 
  2892.000     18.532      2.575 
  2892.500     16.380      2.570 
  2893.000     14.404      2.573 
  2893.500     14.553      2.573 
  2894.000     14.629      2.572 
  2894.500     14.453      2.571 
  2895.000     14.738      2.584 
  2895.500     13.403      2.596 
  2896.000     13.906      2.599 
  2896.500     13.638      2.597 
  2897.000     14.348      2.593 
  2897.500     15.350      2.589 
  2898.000     16.376      2.580 
  2898.500     16.983      2.549 
  2899.000     16.895      2.529 
  2899.500     17.025      2.520 
  2900.000     18.591      2.535 
  2900.500     20.252      2.545 
  2901.000     21.569      2.579 
  2901.500     21.619      2.590 
  2902.000     21.681      2.604 
  2902.500     21.808      2.606 
  2903.000     22.481      2.604 
  2903.500     23.017      2.602 
  2904.000     23.754      2.620 
  2904.500     24.759      2.626 
  2905.000     24.203      2.626 
  2905.500     23.325      2.614 
  2906.000     21.663      2.586 
  2906.500     21.719      2.579 
  2907.000     21.567      2.589 
  2907.500     21.604      2.616 
  2908.000     22.823      2.616 
  2908.500     26.587      2.601 
  2909.000     28.592      2.598 
  2909.500     32.729      2.587 
  2910.000     35.194      2.587 
  2910.500     39.172      2.589 
  2911.000     36.495      2.585 
  2911.500     31.906      2.583 
  2912.000     25.804      2.583 
  2912.500     21.660      2.587 
  2913.000     20.648      2.595 
  2913.500     19.901      2.597 
  2914.000     20.934      2.599 
  2914.500     21.098      2.593 
  2915.000     20.815      2.587 
  2915.500     21.263      2.590 
  2916.000     22.551      2.592 
  2916.500     21.325      2.586 
  2917.000     24.624      2.581 
  2917.500     26.926      2.580 
  2918.000     28.276      2.592 
  2918.500     28.998      2.612 
  2919.000     29.230      2.618 
  2919.500     27.611      2.613 
  2920.000     25.593      2.609 
  2920.500     25.620      2.600 
  2921.000     24.020      2.597 
  2921.500     23.966      2.597 
  2922.000     22.411      2.596 
  2922.500     20.965      2.596 
  2923.000     20.881      2.595 
  2923.500     20.815      2.584 
  2924.000     20.927      2.574 
  2924.500     20.891      2.542 
  2925.000     22.414      2.530 
  2925.500     21.973      2.536 
  2926.000     22.054      2.548 
  2926.500     20.286      2.553 
  2927.000     19.293      2.551 
  2927.500     18.650      2.542 
  2928.000     20.117      2.534 
  2928.500     21.457      2.531 
  2929.000     21.668      2.535 
  2929.500     21.050      2.549 
  2930.000     20.786      2.551 
  2930.500     19.975      2.570 
  2931.000     22.078      2.579 
  2931.500     25.155      2.579 
