~Version Information Block
 VERS.                2.00:     CWLS LOG ASCII STANDARD - VERSION 2.000000
 WRAP.                  NO:     One Line Per Depth Step
#
~Well Information Block
#MNEM.UNIT                     Data                         Information
#----------   ------------------------------------------   ----------------
 STRT.FT                                      100.0000:
 STOP.FT                                     5300.0000:
 STEP.FT                                        0.5000:
 NULL.                                       -999.2500:
 COMP.                                                :     COMPANY
 WELL.                                                :     WELL
 FLD .                                                :     FIELD
 CNTY.                                                :     COUNTY
 STAT.                                                :     STATE
 CTRY.                                                :     COUNTRY
 SRVC.                                                :     SERVICE COMPANY
 DATE.                                                :     DATE
 API .                                                :     API NUMBER
 UWI .                                                :     UWI NUMBER
#
~Curve Information Block
#MNEM.UNIT       API CODE      Curve Description
#----------    -------------   -------------------
 DEPT.FT                   :   Depth in Feet
 GR  .GAPI                 :   Gamma Ray
 RHOB.G/C3                 :   Bulk Density
#
~A  DEPTH         GR       RHOB  
# ...
   454.000     97.261      2.661 
   454.500     97.629      2.666 
   455.000     98.512      2.676 
   455.500     99.285      2.678 
   456.000     99.971      2.683 
   456.500    100.624      2.686 
   457.000    100.976      2.685 
   457.500    100.748      2.683 
   458.000     99.975      2.677 
   458.500     99.105      2.671 
   459.000     98.715      2.670 
   459.500     98.945      2.668 
   460.000     99.694      2.665 
   460.500     99.946      2.662 
   461.000    100.547      2.659 
   461.500    100.390      2.653 
   462.000    100.348      2.650 
   462.500    100.408      2.640 
   463.000    100.445      2.638 
   463.500     99.672      2.635 
   464.000     98.047      2.624 
   464.500     96.387      2.603 
   465.000     95.498      2.587 
   465.500     94.696      2.576 
   466.000     95.569      2.551 
   466.500     93.197      2.513 
   467.000     91.606      2.486 
   467.500     91.776      2.490 
   468.000     91.657      2.525 
   468.500     92.276      2.625 
   469.000     93.341      2.656 
   469.500     94.099      2.670 
   470.000     94.708      2.682 
   470.500     95.005      2.688 
   471.000     95.872      2.692 
   471.500     95.427      2.691 
   472.000     96.914      2.684 
   472.500     95.615      2.668 
   473.000     94.461      2.663 
   473.500     94.184      2.655 
   474.000     92.809      2.653 
   474.500     92.606      2.656 
   475.000     92.296      2.661 
   475.500     93.785      2.669 
   476.000     94.881      2.676 
   476.500     96.475      2.673 
   477.000     96.493      2.668 
   477.500     95.813      2.661 
   478.000     95.257      2.655 
   478.500     94.833      2.658 
   479.000     94.927      2.660 
   479.500     94.161      2.657 
   480.000     93.597      2.657 
   480.500     93.286      2.656 
   481.000     93.300      2.654 
   481.500     93.730      2.650 
   482.000     94.916      2.648 
   482.500     95.597      2.646 
   483.000     96.947      2.647 
   483.500     98.277      2.650 
   484.000     99.709      2.663 
   484.500    100.868      2.674 
   485.000    102.865      2.675 
   485.500    103.668      2.672 
   486.000    105.145      2.670 
   486.500    104.660      2.665 
   487.000    101.142      2.654 
   487.500     98.605      2.652 
   488.000     83.572      2.658 
   488.500     70.662      2.664 
   489.000     56.470      2.664 
   489.500     53.287      2.654 
   490.000     44.509      2.647 
   490.500     31.557      2.603 
   491.000     26.658      2.587 
   491.500     25.399      2.587 
   492.000     25.492      2.594 
   492.500     25.539      2.613 
   493.000     24.701      2.621 
   493.500     27.049      2.627 
   494.000     28.138      2.627 
   494.500     31.170      2.631 
   495.000     31.242      2.632 
   495.500     31.392      2.633 
   496.000     30.581      2.634 
   496.500     28.621      2.637 
   497.000     27.407      2.638 
   497.500     25.619      2.633 
   498.000     25.631      2.630 
   498.500     25.581      2.623 
   499.000     25.428      2.619 
   499.500     24.591      2.619 
   500.000     23.733      2.622 
   500.500     23.031      2.622 
   501.000     24.647      2.622 
   501.500     25.824      2.619 
   502.000     26.625      2.619 
   502.500     27.165      2.625 
   503.000     27.275      2.630 
   503.500     25.871      2.633 
   504.000     23.405      2.632 
   504.500     21.581      2.628 
   505.000     20.476      2.627 
   505.500     19.549      2.633 
   506.000     19.719      2.639 
   506.500     19.737      2.651 
   507.000     21.083      2.665 
   507.500     22.466      2.672 
   508.000     23.261      2.669 
   508.500     23.447      2.658 
   509.000     23.604      2.652 
   509.500     24.238      2.652 
   510.000     24.870      2.651 
   510.500     24.682      2.649 
   511.000     23.633      2.643 
   511.500     21.567      2.632 
   512.000     18.678      2.628 
   512.500     15.800      2.625 
   513.000     12.660      2.627 
   513.500     13.082      2.629 
   514.000     13.819      2.631 
   514.500     14.864      2.633 
   515.000     16.011      2.634 
   515.500     17.059      2.635 
   516.000     18.149      2.637 
   516.500     19.258      2.648 
   517.000     20.069      2.650 
   517.500     20.050      2.655 
   518.000     20.177      2.658 
   518.500     19.405      2.662 
   519.000     19.381      2.666 
   519.500     18.638      2.668 
   520.000     18.495      2.666 
   520.500     18.500      2.662 
   521.000     18.621      2.660 
   521.500     19.370      2.660 
   522.000     19.429      2.660 
   522.500     20.060      2.657 
   523.000     20.712      2.653 
   523.500     20.919      2.650 
   524.000     22.598      2.643 
   524.500     25.095      2.640 
   525.000     26.563      2.638 
   525.500     27.834      2.638 
   526.000     28.600      2.639 
   526.500     30.270      2.644 
   527.000     30.505      2.647 
   527.500     31.175      2.640 
   528.000     33.253      2.635 
   528.500     33.416      2.625 
   529.000     33.417      2.624 
   529.500     32.482      2.628 
   530.000     33.332      2.634 
   530.500     32.395      2.647 
   531.000     31.886      2.653 
   531.500     32.000      2.652 
   532.000     32.798      2.649 
   532.500     32.677      2.643 
   533.000     32.288      2.637 
   533.500     31.505      2.634 
   534.000     31.179      2.636 
   534.500     31.067      2.634 
   535.000     31.079      2.632 
   535.500     31.480      2.625 
   536.000     32.577      2.624 
   536.500     34.694      2.626 
   537.000     36.034      2.631 
   537.500     37.004      2.634 
   538.000     38.037      2.638 
   538.500     38.055      2.647 
   539.000     37.164      2.650 
   539.500     36.954      2.648 
   540.000     37.617      2.640 
   540.500     38.049      2.634 
   541.000     38.135      2.628 
   541.500     38.416      2.633 
   542.000     38.643      2.637 
   542.500     39.117      2.641 
   543.000     38.809      2.646 
   543.500     38.003      2.654 
   544.000     38.954      2.653 
   544.500     38.941      2.653 
   545.000     41.104      2.649 
   545.500     41.454      2.644 
   546.000     39.907      2.638 
   546.500     38.990      2.632 
   547.000     38.805      2.626 
   547.500     37.978      2.630 
   548.000     37.059      2.631 
   548.500     36.793      2.640 
   549.000     37.387      2.646 
   549.500     38.085      2.649 
   550.000     38.570      2.648 
   550.500     40.243      2.648 
   551.000     41.145      2.648 
   551.500     41.405      2.647 
   552.000     41.378      2.643 
   552.500     41.117      2.639 
   553.000     40.470      2.640 
   553.500     39.103      2.642 
   554.000     37.972      2.642 
   554.500     35.019      2.640 
   555.000     34.459      2.636 
   555.500     34.096      2.627 
   556.000     33.069      2.622 
   556.500     33.790      2.611 
   557.000     35.735      2.612 
   557.500     36.496      2.619 
   558.000     38.099      2.623 
   558.500     37.567      2.631 
   559.000     37.249      2.634 
   559.500     36.474      2.632 
   560.000     36.893      2.633 
   560.500     37.562      2.628 
   561.000     38.584      2.624 
   561.500     38.987      2.624 
   562.000     36.936      2.625 
   562.500     35.374      2.627 
   563.000     32.729      2.626 
   563.500     31.098      2.622 
   564.000     30.143      2.619 
   564.500     31.121      2.614 
   565.000     32.395      2.615 
   565.500     34.519      2.618 
   566.000     35.679      2.618 
   566.500     37.588      2.615 
   567.000     37.554      2.614 
   567.500     37.530      2.620 
   568.000     35.710      2.626 
   568.500     31.008      2.634 
   569.000     27.430      2.631 
   569.500     25.286      2.631 
   570.000     24.701      2.628 
   570.500     24.898      2.631 
   571.000     27.630      2.630 
   571.500     33.558      2.627 
