~Version Information Block
 VERS.                2.00:     CWLS LOG ASCII STANDARD - VERSION 2.000000
 WRAP.                  NO:     One Line Per Depth Step
#
~Well Information Block
#MNEM.UNIT                     Data                         Information
#----------   ------------------------------------------   ----------------
 STRT.FT                                      100.0000:
 STOP.FT                                     5300.0000:
 STEP.FT                                        0.5000:
 NULL.                                       -999.2500:
 COMP.                                                :     COMPANY
 WELL.                                                :     WELL
 FLD .                                                :     FIELD
 CNTY.                                                :     COUNTY
 STAT.                                                :     STATE
 CTRY.                                                :     COUNTRY
 SRVC.                                                :     SERVICE COMPANY
 DATE.                                                :     DATE
 API .                                                :     API NUMBER
 UWI .                                                :     UWI NUMBER
#
~Curve Information Block
#MNEM.UNIT       API CODE      Curve Description
#----------    -------------   -------------------
 DEPT.FT                   :   Depth in Feet
 GR  .GAPI                 :   Gamma Ray
 RHOB.G/C3                 :   Bulk Density
#
~A  DEPTH         GR       RHOB  
# ...
   808.000     21.674      2.628 
   808.500     21.641      2.621 
   809.000     21.520      2.619 
   809.500     21.380      2.616 
   810.000     21.234      2.617 
   810.500     21.094      2.619 
   811.000     20.953      2.629 
   811.500     20.813      2.635 
   812.000     20.673      2.637 
   812.500     20.533      2.637 
   813.000     20.393      2.636 
   813.500     20.253      2.636 
   814.000     20.113      2.636 
   814.500     19.973      2.634 
   815.000     19.833      2.637 
   815.500     19.693      2.645 
   816.000     19.553      2.644 
   816.500     19.413      2.642 
   817.000     19.273      2.631 
   817.500     19.133      2.626 
   818.000     18.993      2.624 
   818.500     18.853      2.627 
   819.000     18.713      2.637 
   819.500     18.573      2.642 
   820.000     18.433      2.648 
   820.500     18.293      2.652 
   821.000     18.153      2.658 
   821.500     18.013      2.665 
   822.000     17.873      2.665 
   822.500     17.733      2.669 
   823.000     17.593      2.670 
   823.500     17.453      2.669 
   824.000     17.313      2.667 
   824.500     17.173      2.668 
   825.000     17.033      2.677 
   825.500     16.893      2.678 
   826.000     16.753      2.678 
   826.500     16.613      2.678 
   827.000     16.473      2.676 
   827.500     16.333      2.672 
   828.000     16.193      2.671 
   828.500     16.053      2.666 
   829.000     15.913      2.658 
   829.500     15.773      2.651 
   830.000     15.633      2.648 
   830.500     15.493      2.644 
   831.000     15.353      2.644 
   831.500     15.213      2.646 
   832.000     15.073      2.649 
   832.500     14.933      2.650 
   833.000     14.793      2.652 
   833.500     14.652      2.656 
   834.000     14.509      2.658 
   834.500     14.375      2.662 
   835.000     14.230      2.667 
   835.500     14.072      2.667 
   836.000     13.988      2.662 
   836.500     13.760      2.654 
   837.000     14.290      2.649 
   837.500     15.626      2.648 
   838.000     16.142      2.647 
   838.500     16.714      2.657 
   839.000     17.561      2.664 
   839.500     17.722      2.664 
   840.000     17.772      2.664 
   840.500     17.149      2.662 
   841.000     16.341      2.662 
   841.500     15.402      2.662 
   842.000     13.885      2.661 
   842.500     13.781      2.670 
   843.000     16.054      2.679 
   843.500     17.015      2.681 
   844.000     16.295      2.682 
   844.500     16.414      2.680 
   845.000     18.009      2.683 
   845.500     18.559      2.683 
   846.000     18.412      2.680 
   846.500     19.146      2.674 
   847.000     19.792      2.670 
   847.500     21.295      2.667 
   848.000     22.314      2.667 
   848.500     22.458      2.664 
   849.000     22.365      2.662 
   849.500     20.815      2.660 
   850.000     19.674      2.662 
   850.500     19.169      2.664 
   851.000     19.961      2.665 
   851.500     20.041      2.665 
   852.000     20.103      2.666 
   852.500     20.234      2.664 
   853.000     20.874      2.666 
   853.500     21.487      2.666 
   854.000     21.623      2.667 
   854.500     21.755      2.668 
   855.000     21.012      2.671 
   855.500     20.878      2.679 
   856.000     20.699      2.683 
   856.500     19.999      2.677 
   857.000     20.145      2.675 
   857.500     19.997      2.672 
   858.000     20.672      2.670 
   858.500     20.969      2.668 
   859.000     20.230      2.669 
   859.500     19.927      2.672 
   860.000     19.199      2.680 
   860.500     19.302      2.690 
   861.000     19.317      2.696 
   861.500     19.372      2.698 
   862.000     20.731      2.701 
   862.500     21.470      2.695 
   863.000     21.667      2.695 
   863.500     21.688      2.693 
   864.000     21.623      2.693 
   864.500     21.658      2.691 
   865.000     21.756      2.688 
   865.500     20.799      2.683 
   866.000     20.651      2.677 
   866.500     20.815      2.669 
   867.000     21.040      2.662 
   867.500     20.124      2.661 
   868.000     19.917      2.658 
   868.500     17.698      2.667 
   869.000     17.527      2.667 
   869.500     17.624      2.668 
   870.000     18.892      2.668 
   870.500     20.234      2.674 
   871.000     20.048      2.674 
   871.500     19.398      2.677 
   872.000     17.759      2.677 
   872.500     17.808      2.678 
   873.000     17.062      2.674 
   873.500     16.925      2.671 
   874.000     16.947      2.666 
   874.500     16.862      2.664 
   875.000     17.492      2.665 
   875.500     18.504      2.670 
   876.000     19.279      2.672 
   876.500     18.871      2.671 
   877.000     18.608      2.672 
   877.500     18.355      2.672 
   878.000     18.062      2.671 
   878.500     17.777      2.666 
   879.000     17.535      2.660 
   879.500     17.229      2.659 
   880.000     16.876      2.647 
   880.500     17.880      2.644 
   881.000     19.435      2.646 
   881.500     19.247      2.649 
   882.000     19.392      2.655 
   882.500     18.479      2.654 
   883.000     17.588      2.652 
   883.500     16.219      2.652 
   884.000     16.051      2.650 
   884.500     15.095      2.650 
   885.000     14.374      2.651 
   885.500     13.571      2.656 
   886.000     12.804      2.667 
   886.500     12.014      2.674 
   887.000     13.034      2.670 
   887.500     14.103      2.667 
   888.000     16.139      2.668 
   888.500     18.337      2.674 
   889.000     20.092      2.679 
   889.500     21.563      2.685 
   890.000     21.730      2.691 
   890.500     21.083      2.693 
   891.000     19.959      2.684 
   891.500     15.914      2.679 
   892.000     13.786      2.682 
   892.500     12.354      2.689 
   893.000     11.730      2.691 
   893.500     11.969      2.685 
   894.000     12.743      2.677 
   894.500     13.695      2.668 
   895.000     12.765      2.661 
   895.500     13.470      2.662 
   896.000     13.890      2.665 
   896.500     16.059      2.669 
   897.000     16.932      2.670 
   897.500     18.016      2.675 
   898.000     20.192      2.679 
   898.500     20.789      2.681 
   899.000     21.530      2.679 
   899.500     21.698      2.674 
   900.000     22.679      2.672 
   900.500     23.601      2.670 
   901.000     24.066      2.674 
   901.500     24.199      2.677 
   902.000     24.350      2.683 
   902.500     22.245      2.686 
   903.000     21.671      2.682 
   903.500     20.851      2.675 
   904.000     21.333      2.669 
   904.500     23.438      2.668 
   905.000     23.351      2.677 
   905.500     24.559      2.682 
   906.000     25.924      2.681 
   906.500     25.531      2.665 
   907.000     25.611      2.663 
   907.500     26.132      2.662 
   908.000     26.984      2.667 
   908.500     27.419      2.670 
   909.000     27.825      2.669 
   909.500     27.631      2.674 
   910.000     27.459      2.681 
   910.500     27.444      2.676 
   911.000     28.642      2.671 
   911.500     28.831      2.666 
   912.000     29.798      2.665 
   912.500     30.366      2.669 
   913.000     30.257      2.674 
   913.500     30.367      2.684 
   914.000     30.432      2.688 
   914.500     31.171      2.691 
   915.000     31.321      2.689 
   915.500     31.810      2.690 
   916.000     32.364      2.686 
   916.500     30.525      2.677 
   917.000     28.743      2.673 
   917.500     27.124      2.670 
   918.000     26.106      2.669 
   918.500     26.367      2.665 
   919.000     27.478      2.665 
   919.500     28.647      2.669 
   920.000     28.372      2.673 
   920.500     26.788      2.683 
   921.000     26.127      2.684 
   921.500     24.601      2.678 
   922.000     23.859      2.677 
   922.500     23.035      2.666 
   923.000     23.656      2.670 
   923.500     24.392      2.678 
   924.000     27.347      2.687 
   924.500     29.034      2.691 
   925.000     30.890      2.685 
   925.500     32.064      2.679 
