~Version Information Block
 VERS.                2.00:     CWLS LOG ASCII STANDARD - VERSION 2.000000
 WRAP.                  NO:     One Line Per Depth Step
#
~Well Information Block
#MNEM.UNIT                     Data                         Information
#----------   ------------------------------------------   ----------------
 STRT.FT                                      100.0000:
 STOP.FT                                     5300.0000:
 STEP.FT                                        0.5000:
 NULL.                                       -999.2500:
 COMP.                                                :     COMPANY
 WELL.                                                :     WELL
 FLD .                                                :     FIELD
 CNTY.                                                :     COUNTY
 STAT.                                                :     STATE
 CTRY.                                                :     COUNTRY
 SRVC.                                                :     SERVICE COMPANY
 DATE.                                                :     DATE
 API .                                                :     API NUMBER
 UWI .                                                :     UWI NUMBER
#
~Curve Information Block
#MNEM.UNIT       API CODE      Curve Description
#----------    -------------   -------------------
 DEPT.FT                   :   Depth in Feet
 GR  .GAPI                 :   Gamma Ray
 RHOB.G/C3                 :   Bulk Density
#
~A  DEPTH         GR       RHOB  
# ...
  2106.000    122.210      2.718 
  2106.500    128.474      2.701 
  2107.000    133.674      2.673 
  2107.500    136.473      2.622 
  2108.000    135.925      2.634 
  2108.500    131.469      2.671 
  2109.000    127.592      2.687 
  2109.500    124.351      2.694 
  2110.000    121.775      2.690 
  2110.500    114.804      2.693 
  2111.000    110.092      2.702 
  2111.500    110.612      2.712 
  2112.000    111.994      2.696 
  2112.500    110.512      2.639 
  2113.000    108.003      2.636 
  2113.500    102.823      2.638 
  2114.000     90.082      2.656 
  2114.500     84.565      2.705 
  2115.000     80.622      2.713 
  2115.500     84.710      2.705 
  2116.000     87.885      2.698 
  2116.500     99.855      2.646 
  2117.000    105.938      2.630 
  2117.500    103.234      2.628 
  2118.000     95.807      2.679 
  2118.500     88.763      2.743 
  2119.000     86.930      2.694 
  2119.500     88.118      2.652 
  2120.000     91.591      2.637 
  2120.500    100.961      2.634 
  2121.000    110.388      2.644 
  2121.500    116.509      2.653 
  2122.000    117.923      2.649 
  2122.500    113.532      2.647 
  2123.000    109.714      2.647 
  2123.500    109.356      2.642 
  2124.000    109.778      2.617 
  2124.500    107.924      2.606 
  2125.000    102.249      2.609 
  2125.500     97.629      2.623 
  2126.000     96.583      2.636 
  2126.500     98.991      2.677 
  2127.000    100.019      2.673 
  2127.500    101.269      2.654 
  2128.000    100.295      2.620 
  2128.500    103.232      2.603 
  2129.000    101.121      2.602 
  2129.500     99.030      2.602 
  2130.000     92.476      2.616 
  2130.500     86.204      2.630 
  2131.000     83.364      2.634 
  2131.500     82.386      2.636 
  2132.000     83.392      2.637 
  2132.500     83.414      2.632 
  2133.000     78.588      2.626 
  2133.500     73.993      2.634 
  2134.000     72.514      2.636 
  2134.500     74.377      2.631 
  2135.000     83.320      2.620 
  2135.500     84.952      2.615 
  2136.000     86.781      2.622 
  2136.500     88.749      2.636 
  2137.000     90.472      2.652 
  2137.500     93.025      2.640 
  2138.000     94.037      2.627 
  2138.500     91.591      2.595 
  2139.000     84.796      2.593 
  2139.500     74.595      2.604 
  2140.000     73.080      2.627 
  2140.500     72.814      2.643 
  2141.000     72.819      2.662 
  2141.500     72.895      2.673 
  2142.000     75.169      2.690 
  2142.500     73.856      2.711 
  2143.000     71.427      2.697 
  2143.500     69.526      2.652 
  2144.000     67.235      2.634 
  2144.500     68.281      2.623 
  2145.000     70.540      2.614 
  2145.500     71.794      2.592 
  2146.000     72.849      2.585 
  2146.500     71.330      2.615 
  2147.000     68.720      2.631 
  2147.500     66.667      2.656 
  2148.000     66.400      2.646 
  2148.500     71.736      2.597 
  2149.000     75.699      2.553 
  2149.500     81.926      2.559 
  2150.000     82.326      2.568 
  2150.500     84.079      2.694 
  2151.000     86.130      2.684 
  2151.500     89.545      2.678 
  2152.000     91.043      2.660 
  2152.500     87.882      2.665 
  2153.000     81.783      2.680 
  2153.500     78.882      2.686 
  2154.000     74.847      2.680 
  2154.500     73.823      2.676 
  2155.000     72.916      2.685 
  2155.500     76.002      2.701 
  2156.000     82.244      2.711 
  2156.500     91.451      2.699 
  2157.000     93.661      2.675 
  2157.500     94.671      2.668 
  2158.000     91.739      2.664 
  2158.500     87.962      2.649 
  2159.000     86.520      2.611 
  2159.500     84.667      2.606 
  2160.000     82.806      2.626 
  2160.500     81.089      2.680 
  2161.000     79.764      2.692 
  2161.500     79.835      2.695 
  2162.000     79.604      2.693 
  2162.500     82.194      2.687 
  2163.000     84.272      2.688 
  2163.500     88.665      2.686 
  2164.000     89.792      2.683 
  2164.500     88.887      2.676 
  2165.000     84.446      2.677 
  2165.500     80.797      2.677 
  2166.000     79.361      2.677 
  2166.500     80.240      2.671 
  2167.000     82.307      2.654 
  2167.500     84.166      2.643 
  2168.000     87.255      2.662 
  2168.500     89.887      2.676 
  2169.000     90.192      2.683 
  2169.500     87.900      2.695 
  2170.000     86.069      2.719 
  2170.500     81.791      2.706 
  2171.000     80.220      2.666 
  2171.500     79.015      2.612 
  2172.000     79.059      2.591 
  2172.500     79.427      2.554 
  2173.000     76.174      2.543 
  2173.500     71.160      2.562 
  2174.000     67.157      2.602 
  2174.500     62.499      2.651 
  2175.000     60.747      2.641 
  2175.500     60.447      2.584 
  2176.000     61.015      2.489 
  2176.500     63.674      2.494 
  2177.000     64.797      2.490 
  2177.500     65.028      2.618 
  2178.000     63.999      2.650 
  2178.500     60.291      2.678 
  2179.000     60.360      2.677 
  2179.500     61.148      2.647 
  2180.000     63.388      2.643 
  2180.500     65.712      2.644 
  2181.000     67.845      2.651 
  2181.500     70.588      2.673 
  2182.000     74.856      2.690 
  2182.500     78.463      2.734 
  2183.000     77.863      2.660 
  2183.500     76.201      2.594 
  2184.000     74.506      2.575 
  2184.500     71.530      2.623 
  2185.000     69.007      2.657 
  2185.500     68.026      2.664 
  2186.000     68.665      2.651 
  2186.500     68.828      2.621 
  2187.000     66.679      2.618 
  2187.500     64.808      2.677 
  2188.000     62.095      2.695 
  2188.500     61.139      2.682 
  2189.000     61.181      2.668 
  2189.500     65.022      2.710 
  2190.000     73.217      2.695 
  2190.500     79.933      2.604 
  2191.000     81.555      2.577 
  2191.500     84.338      2.569 
  2192.000     82.563      2.610 
  2192.500     80.603      2.669 
  2193.000     80.624      2.679 
  2193.500     82.711      2.679 
  2194.000     89.640      2.677 
  2194.500     94.309      2.676 
  2195.000     95.532      2.671 
  2195.500     92.867      2.666 
  2196.000     89.273      2.658 
  2196.500     87.957      2.673 
  2197.000     92.384      2.689 
  2197.500    100.900      2.673 
  2198.000    107.638      2.625 
  2198.500    110.779      2.578 
  2199.000    108.695      2.596 
  2199.500    101.532      2.634 
  2200.000     98.989      2.671 
  2200.500     98.975      2.691 
  2201.000     99.368      2.680 
  2201.500     99.222      2.680 
  2202.000     91.961      2.684 
  2202.500     85.654      2.699 
  2203.000     84.711      2.684 
  2203.500     86.608      2.663 
  2204.000     90.551      2.637 
  2204.500     97.443      2.643 
  2205.000    100.941      2.652 
  2205.500    105.381      2.658 
  2206.000    111.423      2.653 
  2206.500    115.078      2.654 
  2207.000    117.226      2.641 
  2207.500    116.251      2.633 
  2208.000    113.532      2.620 
  2208.500    109.755      2.619 
  2209.000    102.942      2.641 
  2209.500    100.186      2.655 
  2210.000     98.801      2.671 
  2210.500    101.301      2.665 
  2211.000    101.499      2.647 
  2211.500    112.581      2.637 
  2212.000    114.690      2.636 
  2212.500    116.494      2.648 
  2213.000    113.130      2.661 
  2213.500    109.420      2.656 
  2214.000    105.754      2.651 
  2214.500    102.565      2.658 
  2215.000    101.462      2.655 
  2215.500     97.083      2.650 
  2216.000     96.781      2.649 
  2216.500     98.740      2.656 
  2217.000    100.944      2.663 
  2217.500    101.123      2.668 
  2218.000     98.371      2.682 
  2218.500     93.835      2.686 
  2219.000     92.558      2.683 
  2219.500     92.734      2.677 
  2220.000     94.201      2.674 
  2220.500     99.166      2.687 
  2221.000    103.735      2.676 
  2221.500    107.134      2.656 
  2222.000    107.951      2.588 
  2222.500     99.932      2.594 
  2223.000     93.708      2.630 
  2223.500     91.826      2.665 
