~Version Information Block
 VERS.                2.00:     CWLS LOG ASCII STANDARD - VERSION 2.000000
 WRAP.                  NO:     One Line Per Depth Step
#
~Well Information Block
#MNEM.UNIT                     Data                         Information
#----------   ------------------------------------------   ----------------
 STRT.FT                                      100.0000:
 STOP.FT                                     5300.0000:
 STEP.FT                                        0.5000:
 NULL.                                       -999.2500:
 COMP.                                                :     COMPANY
 WELL.                                                :     WELL
 FLD .                                                :     FIELD
 CNTY.                                                :     COUNTY
 STAT.                                                :     STATE
 CTRY.                                                :     COUNTRY
 SRVC.                                                :     SERVICE COMPANY
 DATE.                                                :     DATE
 API .                                                :     API NUMBER
 UWI .                                                :     UWI NUMBER
#
~Curve Information Block
#MNEM.UNIT       API CODE      Curve Description
#----------    -------------   -------------------
 DEPT.FT                   :   Depth in Feet
 GR  .GAPI                 :   Gamma Ray
 RHOB.G/C3                 :   Bulk Density
#
~A  DEPTH         GR       RHOB  
# ...
  4112.000     64.929      2.620 
  4112.500     50.315      2.599 
  4113.000     43.068      2.605 
  4113.500     44.900      2.625 
  4114.000     52.506      2.628 
  4114.500     56.681      2.628 
  4115.000     59.589      2.624 
  4115.500     53.999      2.621 
  4116.000     50.262      2.622 
  4116.500     45.594      2.631 
  4117.000     57.015      2.630 
  4117.500     77.771      2.621 
  4118.000     88.772      2.599 
  4118.500     86.523      2.586 
  4119.000     82.142      2.594 
  4119.500     79.607      2.610 
  4120.000     83.115      2.623 
  4120.500     84.148      2.628 
  4121.000     82.815      2.640 
  4121.500     78.179      2.646 
  4122.000     64.220      2.640 
  4122.500     60.160      2.617 
  4123.000     57.362      2.600 
  4123.500     56.192      2.598 
  4124.000     51.350      2.595 
  4124.500     47.621      2.589 
  4125.000     46.265      2.591 
  4125.500     61.154      2.599 
  4126.000     69.774      2.608 
  4126.500     88.804      2.610 
  4127.000     95.879      2.603 
  4127.500     95.947      2.600 
  4128.000     87.774      2.598 
  4128.500     69.923      2.609 
  4129.000     63.739      2.618 
  4129.500     58.481      2.621 
  4130.000     58.610      2.618 
  4130.500     51.059      2.607 
  4131.000     45.351      2.612 
  4131.500     38.846      2.618 
  4132.000     36.151      2.620 
  4132.500     35.564      2.615 
  4133.000     35.162      2.606 
  4133.500     34.807      2.602 
  4134.000     39.796      2.596 
  4134.500     44.389      2.638 
  4135.000     62.079      2.666 
  4135.500     79.306      2.659 
  4136.000    105.791      2.572 
  4136.500    114.280      2.525 
  4137.000    124.408      2.576 
  4137.500    124.412      2.634 
  4138.000    125.545      2.680 
  4138.500    127.808      2.675 
  4139.000    127.556      2.668 
  4139.500    124.980      2.667 
  4140.000    115.245      2.665 
  4140.500    109.968      2.673 
  4141.000     95.979      2.638 
  4141.500     90.708      2.597 
  4142.000     78.197      2.563 
  4142.500     62.857      2.583 
  4143.000     64.920      2.603 
  4143.500     71.795      2.597 
  4144.000     84.422      2.584 
  4144.500     95.008      2.587 
  4145.000     95.455      2.606 
  4145.500     93.549      2.616 
  4146.000     93.526      2.625 
  4146.500     95.672      2.637 
  4147.000     95.615      2.654 
  4147.500     95.297      2.693 
  4148.000     94.734      2.686 
  4148.500     94.044      2.647 
  4149.000     95.428      2.637 
  4149.500     96.889      2.642 
  4150.000    112.220      2.646 
  4150.500    112.591      2.614 
  4151.000    112.732      2.589 
  4151.500    106.727      2.581 
  4152.000    103.136      2.607 
  4152.500    106.164      2.621 
  4153.000    109.984      2.636 
  4153.500    115.944      2.645 
  4154.000    117.802      2.652 
  4154.500    119.509      2.655 
  4155.000    119.220      2.661 
  4155.500    119.414      2.670 
  4156.000    121.064      2.698 
  4156.500    125.742      2.694 
  4157.000    128.957      2.684 
  4157.500    129.292      2.556 
  4158.000    128.039      2.479 
  4158.500    126.319      2.533 
  4159.000    124.918      2.627 
  4159.500    120.307      2.652 
  4160.000    112.920      2.652 
  4160.500    105.053      2.638 
  4161.000     92.348      2.630 
  4161.500     93.925      2.611 
  4162.000     96.260      2.579 
  4162.500     97.148      2.576 
  4163.000     97.632      2.604 
  4163.500     81.643      2.616 
  4164.000     76.511      2.636 
  4164.500     74.381      2.652 
  4165.000     80.499      2.662 
  4165.500     81.676      2.676 
  4166.000     76.892      2.676 
  4166.500     72.637      2.655 
  4167.000     60.429      2.646 
  4167.500     58.044      2.647 
  4168.000     60.026      2.643 
  4168.500     67.544      2.642 
  4169.000     72.910      2.635 
  4169.500     83.506      2.683 
  4170.000     96.782      2.677 
  4170.500    106.316      2.751 
  4171.000    109.440      2.597 
  4171.500    110.881      2.488 
  4172.000    109.396      2.521 
  4172.500    105.335      2.577 
  4173.000    102.551      2.627 
  4173.500     95.959      2.614 
  4174.000     84.351      2.597 
  4174.500     74.433      2.599 
  4175.000     65.003      2.599 
  4175.500     54.502      2.581 
  4176.000     47.532      2.569 
  4176.500     46.581      2.564 
  4177.000     53.215      2.578 
  4177.500     60.687      2.631 
  4178.000     69.635      2.714 
  4178.500     92.123      2.708 
  4179.000     92.218      2.667 
  4179.500     92.167      2.683 
  4180.000     94.861      2.733 
  4180.500    105.642      2.728 
  4181.000    115.291      2.661 
  4181.500    119.227      2.411 
  4182.000    115.427      2.359 
  4182.500    109.536      2.438 
  4183.000    107.025      2.431 
  4183.500    106.637      2.617 
  4184.000    106.749      2.668 
  4184.500    104.024      2.674 
  4185.000    101.496      2.654 
  4185.500     96.122      2.642 
  4186.000     92.023      2.642 
  4186.500     90.590      2.654 
  4187.000     96.969      2.650 
  4187.500    101.572      2.648 
  4188.000    111.307      2.653 
  4188.500    117.079      2.664 
  4189.000    119.774      2.650 
  4189.500    117.686      2.651 
  4190.000    117.408      2.680 
  4190.500    114.646      2.695 
  4191.000    110.966      2.667 
  4191.500    111.175      2.640 
  4192.000    113.278      2.621 
  4192.500    111.783      2.606 
  4193.000    109.675      2.566 
  4193.500    105.870      2.519 
  4194.000     99.230      2.477 
  4194.500     93.100      2.431 
  4195.000     87.903      2.492 
  4195.500     80.631      2.584 
  4196.000     75.638      2.631 
  4196.500     66.202      2.624 
  4197.000     65.822      2.628 
  4197.500     68.170      2.641 
  4198.000     79.679      2.667 
  4198.500     98.899      2.696 
  4199.000    103.382      2.686 
  4199.500    106.032      2.668 
  4200.000    106.191      2.664 
  4200.500    111.072      2.650 
  4201.000    113.899      2.588 
  4201.500    113.967      2.558 
  4202.000    107.736      2.546 
  4202.500     90.867      2.559 
  4203.000     84.021      2.598 
  4203.500     73.306      2.615 
  4204.000     71.985      2.636 
  4204.500     71.708      2.642 
  4205.000     78.226      2.649 
  4205.500     90.249      2.645 
  4206.000     97.780      2.660 
  4206.500    100.718      2.651 
  4207.000     96.399      2.641 
  4207.500     98.454      2.641 
  4208.000    105.825      2.647 
  4208.500    108.229      2.651 
  4209.000    110.451      2.652 
  4209.500    106.825      2.645 
  4210.000     86.906      2.636 
  4210.500     55.249      2.629 
  4211.000     51.796      2.622 
  4211.500     43.709      2.612 
  4212.000     43.346      2.597 
  4212.500     51.786      2.601 
  4213.000     64.125      2.607 
  4213.500     80.258      2.626 
  4214.000     92.554      2.640 
  4214.500     99.606      2.675 
  4215.000    105.733      2.693 
  4215.500    111.602      2.700 
  4216.000    112.147      2.700 
  4216.500    111.967      2.716 
  4217.000    112.333      2.722 
  4217.500    112.193      2.718 
  4218.000    112.899      2.697 
  4218.500    112.903      2.637 
  4219.000    111.763      2.576 
  4219.500    104.945      2.567 
  4220.000    100.280      2.584 
  4220.500     88.879      2.614 
  4221.000     90.680      2.618 
  4221.500     91.848      2.617 
  4222.000     94.209      2.617 
  4222.500     96.388      2.630 
  4223.000     97.000      2.637 
  4223.500     97.313      2.640 
  4224.000     93.828      2.634 
  4224.500     88.947      2.627 
  4225.000     88.650      2.647 
  4225.500     89.533      2.682 
  4226.000    100.595      2.713 
  4226.500    107.435      2.703 
  4227.000    105.269      2.666 
  4227.500    101.605      2.648 
  4228.000     97.340      2.631 
  4228.500     92.176      2.637 
  4229.000     95.054      2.649 
  4229.500     95.932      2.647 
