~Version Information Block
 VERS.                2.00:     CWLS LOG ASCII STANDARD - VERSION 2.000000
 WRAP.                  NO:     One Line Per Depth Step
#
~Well Information Block
#MNEM.UNIT                     Data                         Information
#----------   ------------------------------------------   ----------------
 STRT.FT                                      100.0000:
 STOP.FT                                     5300.0000:
 STEP.FT                                        0.5000:
 NULL.                                       -999.2500:
 COMP.                                                :     COMPANY
 WELL.                                                :     WELL
 FLD .                                                :     FIELD
 CNTY.                                                :     COUNTY
 STAT.                                                :     STATE
 CTRY.                                                :     COUNTRY
 SRVC.                                                :     SERVICE COMPANY
 DATE.                                                :     DATE
 API .                                                :     API NUMBER
 UWI .                                                :     UWI NUMBER
#
~Curve Information Block
#MNEM.UNIT       API CODE      Curve Description
#----------    -------------   -------------------
 DEPT.FT                   :   Depth in Feet
 GR  .GAPI                 :   Gamma Ray
 RHOB.G/C3                 :   Bulk Density
#
~A  DEPTH         GR       RHOB  
   100.000     59.449      2.705 
   100.500     59.449      2.705 
   101.000     61.024      2.703 
   101.500     61.024      2.697 
   102.000     61.811      2.670 
   102.500     61.811      2.668 
   103.000     61.811      2.668 
   103.500     61.922      2.671 
   104.000     59.356      2.664 
   104.500     57.615      2.664 
   105.000     57.021      2.664 
   105.500     57.056      2.663 
   106.000     57.807      2.662 
   106.500     59.438      2.642 
   107.000     60.948      2.640 
   107.500     61.006      2.640 
   108.000     61.036      2.644 
   108.500     61.001      2.649 
   109.000     61.176      2.648 
   109.500     61.956      2.652 
   110.000     60.861      2.639 
   110.500     59.249      2.630 
   111.000     59.501      2.627 
   111.500     59.741      2.625 
   112.000     63.713      2.624 
   112.500     66.573      2.615 
   113.000     68.681      2.605 
   113.500     70.952      2.600 
   114.000     71.756      2.600 
   114.500     71.226      2.600 
   115.000     71.301      2.600 
   115.500     71.121      2.601 
   116.000     70.398      2.589 
   116.500     70.517      2.583 
   117.000     70.485      2.580 
   117.500     70.451      2.577 
   118.000     70.430      2.580 
   118.500     68.789      2.597 
   119.000     67.369      2.604 
   119.500     63.578      2.611 
   120.000     61.751      2.628 
   120.500     61.072      2.642 
   121.000     62.136      2.644 
   121.500     64.348      2.644 
   122.000     67.510      2.640 
   122.500     72.426      2.631 
   123.000     73.699      2.621 
   123.500     73.084      2.593 
   124.000     69.305      2.578 
   124.500     66.794      2.552 
   125.000     62.101      2.544 
   125.500     58.760      2.548 
   126.000     57.139      2.586 
   126.500     57.710      2.616 
   127.000     60.129      2.638 
   127.500     61.237      2.638 
   128.000     59.456      2.631 
   128.500     57.071      2.631 
   129.000     54.999      2.632 
   129.500     54.044      2.643 
   130.000     52.381      2.654 
   130.500     52.386      2.661 
   131.000     52.278      2.663 
   131.500     53.273      2.664 
   132.000     57.455      2.660 
   132.500     59.763      2.656 
   133.000     60.415      2.650 
   133.500     61.086      2.642 
   134.000     61.014      2.635 
   134.500     61.030      2.634 
   135.000     61.034      2.642 
   135.500     61.020      2.648 
   136.000     61.037      2.669 
   136.500     61.015      2.676 
   137.000     61.010      2.676 
   137.500     61.182      2.672 
   138.000     62.024      2.663 
   138.500     62.670      2.649 
   139.000     62.591      2.644 
   139.500     62.429      2.637 
   140.000     61.671      2.639 
   140.500     60.323      2.642 
   141.000     60.273      2.648 
   141.500     60.203      2.652 
   142.000     60.246      2.655 
   142.500     59.937      2.656 
   143.000     60.217      2.654 
   143.500     60.606      2.650 
   144.000     60.926      2.651 
   144.500     61.285      2.656 
   145.000     61.884      2.656 
   145.500     62.457      2.653 
   146.000     62.525      2.649 
   146.500     62.119      2.640 
   147.000     61.542      2.633 
   147.500     60.606      2.624 
   148.000     59.023      2.610 
   148.500     57.344      2.582 
   149.000     56.551      2.568 
   149.500     56.864      2.492 
   150.000     57.688      2.427 
   150.500     58.507      2.364 
   151.000     59.189      2.285 
   151.500     59.734      2.245 
   152.000     60.239      2.211 
   152.500     60.825      2.464 
   153.000     61.363      2.628 
   153.500     61.614      2.615 
   154.000     61.621      2.651 
   154.500     61.569      2.663 
   155.000     61.483      2.649 
   155.500     61.450      2.643 
   156.000     61.752      2.641 
   156.500     62.374      2.645 
   157.000     62.891      2.649 
   157.500     63.151      2.658 
   158.000     63.432      2.660 
   158.500     63.718      2.658 
   159.000     63.771      2.656 
   159.500     64.096      2.651 
   160.000     65.697      2.638 
   160.500     68.543      2.603 
   161.000     71.503      2.600 
   161.500     74.045      2.591 
   162.000     76.663      2.582 
   162.500     79.332      2.562 
   163.000     80.939      2.567 
   163.500     80.813      2.586 
   164.000     79.665      2.633 
   164.500     78.508      2.636 
   165.000     77.528      2.641 
   165.500     76.601      2.640 
   166.000     76.165      2.631 
   166.500     76.663      2.621 
   167.000     77.522      2.620 
   167.500     77.919      2.623 
   168.000     78.306      2.628 
   168.500     79.489      2.648 
   169.000     80.203      2.648 
   169.500     77.957      2.662 
   170.000     72.977      2.657 
   170.500     68.742      2.655 
   171.000     67.403      2.650 
   171.500     66.925      2.643 
   172.000     64.335      2.628 
   172.500     60.031      2.634 
   173.000     57.168      2.656 
   173.500     57.746      2.662 
   174.000     60.707      2.672 
   174.500     63.437      2.672 
   175.000     63.968      2.667 
   175.500     61.870      2.666 
   176.000     58.207      2.667 
   176.500     55.004      2.673 
   177.000     53.860      2.676 
   177.500     54.611      2.683 
   178.000     55.996      2.685 
   178.500     57.543      2.682 
   179.000     59.552      2.681 
   179.500     61.454      2.683 
   180.000     61.965      2.687 
   180.500     60.998      2.693 
   181.000     59.805      2.704 
   181.500     59.102      2.707 
   182.000     58.502      2.704 
   182.500     57.684      2.684 
   183.000     56.819      2.672 
   183.500     56.119      2.669 
   184.000     55.727      2.668 
   184.500     55.531      2.669 
   185.000     54.911      2.659 
   185.500     53.821      2.656 
   186.000     54.007      2.656 
   186.500     57.177      2.662 
   187.000     62.115      2.662 
   187.500     65.719      2.658 
   188.000     66.961      2.653 
   188.500     67.593      2.646 
   189.000     68.963      2.635 
   189.500     70.556      2.620 
   190.000     71.820      2.618 
   190.500     72.992      2.640 
   191.000     73.952      2.658 
   191.500     74.414      2.668 
   192.000     75.197      2.660 
   192.500     77.388      2.651 
   193.000     80.469      2.656 
   193.500     82.931      2.659 
   194.000     84.495      2.662 
   194.500     86.103      2.677 
   195.000     87.974      2.676 
   195.500     89.040      2.668 
   196.000     89.903      2.651 
   196.500     85.835      2.636 
   197.000     85.376      2.634 
   197.500     83.468      2.632 
   198.000     82.990      2.625 
   198.500     80.411      2.611 
   199.000     80.279      2.605 
   199.500     78.718      2.603 
   200.000     75.484      2.603 
   200.500     64.300      2.604 
   201.000     61.725      2.617 
   201.500     60.243      2.628 
   202.000     58.596      2.662 
   202.500     59.195      2.672 
   203.000     61.277      2.682 
   203.500     62.603      2.693 
   204.000     63.448      2.708 
   204.500     63.226      2.711 
   205.000     62.477      2.707 
   205.500     61.025      2.699 
   206.000     61.159      2.695 
   206.500     58.254      2.688 
   207.000     57.211      2.686 
   207.500     55.524      2.678 
   208.000     55.705      2.674 
   208.500     56.345      2.666 
   209.000     56.338      2.662 
   209.500     55.700      2.658 
   210.000     54.575      2.664 
   210.500     50.974      2.673 
   211.000     49.222      2.678 
   211.500     47.701      2.677 
   212.000     47.066      2.679 
   212.500     46.851      2.677 
   213.000     48.243      2.677 
   213.500     49.943      2.676 
   214.000     53.468      2.681 
   214.500     59.431      2.680 
   215.000     67.636      2.680 
   215.500     69.604      2.678 
   216.000     72.187      2.676 
   216.500     75.090      2.670 
   217.000     75.173      2.666 
   217.500     74.667      2.662 
