~Version Information Block
 VERS.                2.00:     CWLS LOG ASCII STANDARD - VERSION 2.000000
 WRAP.                  NO:     One Line Per Depth Step
#
~Well Information Block
#MNEM.UNIT                     Data                         Information
#----------   ------------------------------------------   ----------------
 STRT.FT                                      100.0000:
 STOP.FT                                     5300.0000:
 STEP.FT                                        0.5000:
 NULL.                                       -999.2500:
 COMP.                                                :     COMPANY
 WELL.                                                :     WELL
 FLD .                                                :     FIELD
 CNTY.                                                :     COUNTY
 STAT.                                                :     STATE
 CTRY.                                                :     COUNTRY
 SRVC.                                                :     SERVICE COMPANY
 DATE.                                                :     DATE
 API .                                                :     API NUMBER
 UWI .                                                :     UWI NUMBER
#
~Curve Information Block
#MNEM.UNIT       API CODE      Curve Description
#----------    -------------   -------------------
 DEPT.FT                   :   Depth in Feet
 GR  .GAPI                 :   Gamma Ray
 RHOB.G/C3                 :   Bulk Density
#
~A  DEPTH         GR       RHOB  
# ...
  4466.000    125.551      2.669 
  4466.500    124.156      2.531 
  4467.000    123.950      2.451 
  4467.500    124.845      2.385 
  4468.000    125.969      2.552 
  4468.500    127.348      2.301 
  4469.000    126.605      2.332 
  4469.500    122.695      2.423 
  4470.000    117.306      2.491 
  4470.500    112.349      2.593 
  4471.000    108.470      2.601 
  4471.500    107.566      2.623 
  4472.000    108.293      2.646 
  4472.500    108.136      2.591 
  4473.000    107.317      2.534 
  4473.500    107.424      2.544 
  4474.000    106.024      2.599 
  4474.500    105.201      2.629 
  4475.000    105.972      2.618 
  4475.500    108.299      2.628 
  4476.000    110.853      2.644 
  4476.500    113.532      2.757 
  4477.000    114.626      2.778 
  4477.500    117.173      2.759 
  4478.000    119.545      2.729 
  4478.500    121.719      2.681 
  4479.000    122.820      2.670 
  4479.500    121.457      2.677 
  4480.000    120.160      2.548 
  4480.500    118.940      2.582 
  4481.000    121.011      2.572 
  4481.500    120.998      2.659 
  4482.000    119.542      2.625 
  4482.500    108.724      2.538 
  4483.000    106.561      2.526 
  4483.500    105.907      2.566 
  4484.000    107.805      2.624 
  4484.500    112.658      2.566 
  4485.000    114.774      2.401 
  4485.500    115.533      2.353 
  4486.000    115.288      2.396 
  4486.500    119.771      2.555 
  4487.000    121.821      2.595 
  4487.500    123.488      2.600 
  4488.000    122.388      2.604 
  4488.500    119.808      2.644 
  4489.000    117.020      2.691 
  4489.500    111.007      2.686 
  4490.000    108.866      2.669 
  4490.500    106.635      2.644 
  4491.000    110.247      2.636 
  4491.500    114.469      2.644 
  4492.000    119.511      2.616 
  4492.500    122.507      2.589 
  4493.000    123.891      2.625 
  4493.500    124.203      2.722 
  4494.000    125.031      2.763 
  4494.500    126.125      2.754 
  4495.000    125.390      2.697 
  4495.500    124.305      2.676 
  4496.000    123.180      2.653 
  4496.500    120.889      2.663 
  4497.000    120.358      2.676 
  4497.500    113.780      2.663 
  4498.000    110.563      2.542 
  4498.500    104.971      2.385 
  4499.000    105.812      2.399 
  4499.500    107.213      2.420 
  4500.000    111.727      2.482 
  4500.500    116.495      2.467 
  4501.000    121.208      2.473 
  4501.500    123.442      2.481 
  4502.000    125.011      2.475 
  4502.500    125.113      2.456 
  4503.000    120.047      2.497 
  4503.500    117.192      2.573 
  4504.000    112.645      2.695 
  4504.500    113.110      2.754 
  4505.000    113.593      2.711 
  4505.500    113.707      2.654 
  4506.000    114.334      2.636 
  4506.500    115.707      2.630 
  4507.000    117.445      2.628 
  4507.500    119.852      2.661 
  4508.000    120.610      2.686 
  4508.500    121.568      2.718 
  4509.000    121.072      2.640 
  4509.500    117.950      2.528 
  4510.000    115.031      2.481 
  4510.500    114.939      2.493 
  4511.000    116.495      2.628 
  4511.500    118.702      2.727 
  4512.000    115.774      2.721 
  4512.500    112.055      2.702 
  4513.000    112.297      2.648 
  4513.500    112.703      2.683 
  4514.000    113.977      2.803 
  4514.500    114.985      2.794 
  4515.000    115.314      2.647 
  4515.500    113.839      2.617 
  4516.000    113.883      2.686 
  4516.500    112.858      2.672 
  4517.000    110.372      2.648 
  4517.500    108.394      2.410 
  4518.000    108.151      2.366 
  4518.500    112.299      2.434 
  4519.000    117.405      2.535 
  4519.500    121.036      2.612 
  4520.000    122.496      2.637 
  4520.500    120.978      2.603 
  4521.000    120.357      2.540 
  4521.500    119.433      2.548 
  4522.000    119.339      2.579 
  4522.500    119.308      2.691 
  4523.000    120.398      2.673 
  4523.500    119.538      2.650 
  4524.000    118.662      2.628 
  4524.500    111.880      2.624 
  4525.000    112.268      2.612 
  4525.500    111.414      2.571 
  4526.000    110.234      2.559 
  4526.500    110.553      2.588 
  4527.000    109.781      2.656 
  4527.500    109.538      2.699 
  4528.000    110.667      2.699 
  4528.500    114.069      2.725 
  4529.000    118.766      2.726 
  4529.500    120.499      2.700 
  4530.000    121.043      2.693 
  4530.500    117.244      2.613 
  4531.000    114.482      2.634 
  4531.500    113.730      2.659 
  4532.000    114.025      2.687 
  4532.500    115.931      2.729 
  4533.000    118.044      2.715 
  4533.500    118.552      2.669 
  4534.000    118.561      2.553 
  4534.500    117.138      2.499 
  4535.000    115.551      2.539 
  4535.500    114.660      2.579 
  4536.000    114.436      2.591 
  4536.500    113.915      2.601 
  4537.000    116.416      2.623 
  4537.500    118.476      2.629 
  4538.000    118.786      2.598 
  4538.500    119.223      2.561 
  4539.000    119.301      2.574 
  4539.500    119.178      2.610 
  4540.000    117.993      2.639 
  4540.500    116.732      2.655 
  4541.000    114.811      2.684 
  4541.500    112.891      2.700 
  4542.000    112.536      2.695 
  4542.500    114.589      2.680 
  4543.000    114.805      2.652 
  4543.500    111.616      2.640 
  4544.000    106.305      2.634 
  4544.500    107.160      2.655 
  4545.000    108.661      2.687 
  4545.500    107.820      2.731 
  4546.000    104.302      2.743 
  4546.500     98.619      2.718 
  4547.000     97.029      2.704 
  4547.500    101.600      2.713 
  4548.000    102.056      2.742 
  4548.500    107.791      2.801 
  4549.000    110.549      2.709 
  4549.500    113.213      2.564 
  4550.000    113.510      2.315 
  4550.500    112.738      2.156 
  4551.000    111.180      2.297 
  4551.500    108.938      2.437 
  4552.000    102.409      2.546 
  4552.500     98.472      2.446 
  4553.000     92.938      2.521 
  4553.500     88.695      2.572 
  4554.000     93.609      2.668 
  4554.500    100.272      2.789 
  4555.000    108.515      2.775 
  4555.500    115.905      2.705 
  4556.000    120.972      2.615 
  4556.500    120.770      2.591 
  4557.000    120.442      2.501 
  4557.500    119.164      2.385 
  4558.000    114.527      2.146 
  4558.500    110.294      2.251 
  4559.000    110.636      2.474 
  4559.500    111.357      2.623 
  4560.000    111.327      2.675 
  4560.500    110.899      2.562 
  4561.000    107.918      2.552 
  4561.500    108.190      2.556 
  4562.000    107.324      2.607 
  4562.500    105.942      2.672 
  4563.000    105.950      2.685 
  4563.500    105.897      2.670 
  4564.000    106.469      2.675 
  4564.500    111.316      2.560 
  4565.000    114.004      2.566 
  4565.500    117.716      2.558 
  4566.000    118.946      2.660 
  4566.500    114.625      2.631 
  4567.000    113.637      2.507 
  4567.500    109.507      2.424 
  4568.000    109.978      2.322 
  4568.500    108.392      2.331 
  4569.000    108.385      2.446 
  4569.500    108.175      2.523 
  4570.000    107.981      2.600 
  4570.500    106.412      2.670 
  4571.000    105.826      2.652 
  4571.500    107.299      2.586 
  4572.000    109.137      2.483 
  4572.500    118.344      2.489 
  4573.000    118.952      2.610 
  4573.500    120.492      2.681 
  4574.000    118.854      2.710 
  4574.500    116.952      2.631 
  4575.000    113.067      2.518 
  4575.500    112.982      2.572 
  4576.000    114.278      2.643 
  4576.500    115.963      2.639 
  4577.000    114.597      2.623 
  4577.500    110.332      2.601 
  4578.000    106.928      2.626 
  4578.500    105.880      2.734 
  4579.000    108.851      2.748 
  4579.500    112.063      2.728 
  4580.000    114.260      2.664 
  4580.500    116.067      2.666 
  4581.000    116.139      2.722 
  4581.500    116.159      2.701 
  4582.000    116.124      2.719 
  4582.500    115.611      2.475 
  4583.000    112.564      2.414 
  4583.500    112.205      2.445 
