~Version Information Block
 VERS.                2.00:     CWLS LOG ASCII STANDARD - VERSION 2.000000
 WRAP.                  NO:     One Line Per Depth Step
#
~Well Information Block
#MNEM.UNIT                     Data                         Information
#----------   ------------------------------------------   ----------------
 STRT.FT                                      100.0000:
 STOP.FT                                     5300.0000:
 STEP.FT                                        0.5000:
 NULL.                                       -999.2500:
 COMP.                                                :     COMPANY
 WELL.                                                :     WELL
 FLD .                                                :     FIELD
 CNTY.                                                :     COUNTY
 STAT.                                                :     STATE
 CTRY.                                                :     COUNTRY
 SRVC.                                                :     SERVICE COMPANY
 DATE.                                                :     DATE
 API .                                                :     API NUMBER
 UWI .                                                :     UWI NUMBER
#
~Curve Information Block
#MNEM.UNIT       API CODE      Curve Description
#----------    -------------   -------------------
 DEPT.FT                   :   Depth in Feet
 GR  .GAPI                 :   Gamma Ray
 RHOB.G/C3                 :   Bulk Density
#
~A  DEPTH         GR       RHOB  
# ...
  2460.000    150.598      2.678 
  2460.500    149.741      2.685 
  2461.000    149.259      2.689 
  2461.500    148.610      2.698 
  2462.000    148.210      2.704 
  2462.500    148.219      2.700 
  2463.000    150.248      2.691 
  2463.500    152.488      2.681 
  2464.000    152.858      2.679 
  2464.500    151.524      2.687 
  2465.000    150.911      2.699 
  2465.500    151.464      2.707 
  2466.000    151.482      2.713 
  2466.500    151.615      2.719 
  2467.000    149.351      2.721 
  2467.500    147.606      2.711 
  2468.000    146.560      2.685 
  2468.500    146.611      2.660 
  2469.000    147.380      2.662 
  2469.500    149.001      2.680 
  2470.000    150.249      2.694 
  2470.500    148.782      2.697 
  2471.000    147.637      2.700 
  2471.500    146.820      2.704 
  2472.000    146.100      2.707 
  2472.500    144.652      2.709 
  2473.000    141.674      2.709 
  2473.500    141.462      2.707 
  2474.000    141.061      2.706 
  2474.500    142.591      2.700 
  2475.000    140.736      2.696 
  2475.500    138.520      2.690 
  2476.000    138.000      2.689 
  2476.500    139.469      2.685 
  2477.000    142.214      2.683 
  2477.500    146.242      2.679 
  2478.000    148.472      2.678 
  2478.500    149.886      2.686 
  2479.000    149.854      2.699 
  2479.500    149.353      2.701 
  2480.000    149.404      2.701 
  2480.500    147.484      2.693 
  2481.000    146.084      2.689 
  2481.500    144.402      2.692 
  2482.000    143.794      2.697 
  2482.500    144.695      2.703 
  2483.000    145.935      2.711 
  2483.500    148.351      2.718 
  2484.000    149.306      2.721 
  2484.500    148.992      2.712 
  2485.000    148.453      2.707 
  2485.500    147.983      2.707 
  2486.000    148.165      2.722 
  2486.500    146.586      2.731 
  2487.000    145.433      2.728 
  2487.500    145.168      2.726 
  2488.000    146.215      2.726 
  2488.500    148.114      2.722 
  2489.000    151.454      2.716 
  2489.500    151.864      2.709 
  2490.000    152.038      2.709 
  2490.500    149.667      2.718 
  2491.000    148.518      2.718 
  2491.500    151.068      2.719 
  2492.000    153.667      2.717 
  2492.500    156.642      2.713 
  2493.000    155.601      2.709 
  2493.500    152.959      2.709 
  2494.000    149.610      2.713 
  2494.500    146.739      2.728 
  2495.000    146.971      2.735 
  2495.500    146.936      2.733 
  2496.000    148.752      2.727 
  2496.500    153.312      2.723 
  2497.000    155.620      2.725 
  2497.500    156.405      2.730 
  2498.000    156.034      2.730 
  2498.500    153.886      2.722 
  2499.000    152.042      2.715 
  2499.500    150.697      2.706 
  2500.000    150.350      2.703 
  2500.500    149.615      2.700 
  2501.000    148.471      2.706 
  2501.500    148.453      2.709 
  2502.000    148.055      2.708 
  2502.500    147.844      2.697 
  2503.000    149.534      2.687 
  2503.500    151.395      2.683 
  2504.000    152.571      2.684 
  2504.500    154.023      2.686 
  2505.000    154.701      2.691 
  2505.500    155.363      2.701 
  2506.000    155.329      2.704 
  2506.500    152.302      2.711 
  2507.000    150.058      2.710 
  2507.500    149.964      2.701 
  2508.000    150.567      2.685 
  2508.500    151.357      2.674 
  2509.000    152.307      2.685 
  2509.500    154.026      2.706 
  2510.000    154.836      2.712 
  2510.500    156.104      2.709 
  2511.000    155.470      2.707 
  2511.500    153.918      2.708 
  2512.000    150.652      2.715 
  2512.500    148.860      2.719 
  2513.000    147.488      2.714 
  2513.500    147.562      2.711 
  2514.000    148.350      2.711 
  2514.500    150.695      2.708 
  2515.000    153.854      2.700 
  2515.500    155.423      2.694 
  2516.000    155.478      2.681 
  2516.500    155.576      2.680 
  2517.000    154.993      2.679 
  2517.500    153.470      2.681 
  2518.000    153.384      2.688 
  2518.500    155.584      2.705 
  2519.000    156.955      2.714 
  2519.500    157.013      2.713 
  2520.000    155.520      2.703 
  2520.500    154.758      2.690 
  2521.000    154.915      2.696 
  2521.500    155.515      2.701 
  2522.000    156.003      2.713 
  2522.500    155.363      2.696 
  2523.000    155.692      2.678 
  2523.500    154.884      2.678 
  2524.000    153.737      2.687 
  2524.500    150.590      2.695 
  2525.000    149.826      2.704 
  2525.500    151.439      2.715 
  2526.000    152.605      2.725 
  2526.500    152.655      2.728 
  2527.000    151.736      2.714 
  2527.500    148.949      2.698 
  2528.000    146.252      2.694 
  2528.500    143.660      2.697 
  2529.000    144.021      2.706 
  2529.500    146.135      2.718 
  2530.000    147.239      2.720 
  2530.500    147.724      2.724 
  2531.000    147.035      2.704 
  2531.500    146.920      2.698 
  2532.000    148.256      2.701 
  2532.500    149.231      2.709 
  2533.000    150.053      2.707 
  2533.500    149.806      2.699 
  2534.000    147.461      2.683 
  2534.500    146.617      2.654 
  2535.000    146.823      2.634 
  2535.500    149.518      2.634 
  2536.000    150.893      2.655 
  2536.500    150.787      2.702 
  2537.000    150.721      2.710 
  2537.500    151.371      2.698 
  2538.000    152.408      2.685 
  2538.500    153.142      2.673 
  2539.000    153.762      2.674 
  2539.500    152.833      2.692 
  2540.000    151.858      2.709 
  2540.500    147.183      2.720 
  2541.000    142.824      2.719 
  2541.500    140.510      2.717 
  2542.000    138.884      2.710 
  2542.500    137.459      2.697 
  2543.000    135.722      2.687 
  2543.500    134.961      2.692 
  2544.000    135.000      2.734 
  2544.500    135.698      2.740 
  2545.000    138.064      2.725 
  2545.500    141.424      2.662 
  2546.000    142.027      2.621 
  2546.500    143.185      2.632 
  2547.000    142.950      2.663 
  2547.500    141.968      2.685 
  2548.000    141.445      2.700 
  2548.500    141.935      2.701 
  2549.000    142.289      2.698 
  2549.500    144.279      2.689 
  2550.000    143.421      2.696 
  2550.500    145.868      2.700 
  2551.000    147.437      2.702 
  2551.500    150.861      2.700 
  2552.000    153.713      2.688 
  2552.500    154.529      2.675 
  2553.000    154.722      2.683 
  2553.500    155.532      2.693 
  2554.000    156.242      2.709 
  2554.500    155.313      2.704 
  2555.000    154.512      2.696 
  2555.500    153.822      2.683 
  2556.000    152.359      2.677 
  2556.500    150.806      2.678 
  2557.000    149.192      2.695 
  2557.500    147.609      2.713 
  2558.000    146.125      2.717 
  2558.500    143.795      2.717 
  2559.000    142.900      2.723 
  2559.500    144.495      2.732 
  2560.000    146.819      2.730 
  2560.500    151.520      2.718 
  2561.000    152.611      2.715 
  2561.500    152.586      2.714 
  2562.000    152.391      2.716 
  2562.500    151.787      2.719 
  2563.000    150.903      2.724 
  2563.500    149.066      2.732 
  2564.000    148.483      2.735 
  2564.500    147.834      2.725 
  2565.000    149.330      2.699 
  2565.500    150.131      2.669 
  2566.000    150.811      2.662 
  2566.500    149.235      2.671 
  2567.000    149.379      2.677 
  2567.500    150.166      2.684 
  2568.000    149.184      2.709 
  2568.500    148.205      2.717 
  2569.000    147.567      2.719 
  2569.500    147.698      2.717 
  2570.000    147.469      2.711 
  2570.500    146.595      2.695 
  2571.000    146.110      2.695 
  2571.500    145.386      2.695 
  2572.000    145.984      2.696 
  2572.500    147.646      2.689 
  2573.000    148.626      2.683 
  2573.500    147.721      2.678 
  2574.000    146.891      2.676 
  2574.500    142.312      2.679 
  2575.000    142.645      2.693 
  2575.500    144.658      2.697 
  2576.000    147.779      2.711 
  2576.500    150.123      2.717 
  2577.000    148.704      2.719 
  2577.500    147.765      2.713 
