~Version Information Block
 VERS.                2.00:     CWLS LOG ASCII STANDARD - VERSION 2.000000
 WRAP.                  NO:     One Line Per Depth Step
#
~Well Information Block
#MNEM.UNIT                     Data                         Information
#----------   ------------------------------------------   ----------------
 STRT.FT                                      100.0000:
 STOP.FT                                     5300.0000:
 STEP.FT                                        0.5000:
 NULL.                                       -999.2500:
 COMP.                                                :     COMPANY
 WELL.                                                :     WELL
 FLD .                                                :     FIELD
 CNTY.                                                :     COUNTY
 STAT.                                                :     STATE
 CTRY.                                                :     COUNTRY
 SRVC.                                                :     SERVICE COMPANY
 DATE.                                                :     DATE
 API .                                                :     API NUMBER
 UWI .                                                :     UWI NUMBER
#
~Curve Information Block
#MNEM.UNIT       API CODE      Curve Description
#----------    -------------   -------------------
 DEPT.FT                   :   Depth in Feet
 GR  .GAPI                 :   Gamma Ray
 RHOB.G/C3                 :   Bulk Density
#
~A  DEPTH         GR       RHOB  
# ...
  1162.000     28.738      2.826 
  1162.500     26.487      2.814 
  1163.000     25.732      2.824 
  1163.500     26.752      2.819 
  1164.000     28.648      2.813 
  1164.500     30.229      2.802 
  1165.000     34.155      2.791 
  1165.500     32.331      2.777 
  1166.000     32.198      2.772 
  1166.500     31.724      2.775 
  1167.000     31.853      2.779 
  1167.500     32.730      2.780 
  1168.000     33.484      2.791 
  1168.500     33.424      2.796 
  1169.000     31.928      2.797 
  1169.500     31.911      2.791 
  1170.000     32.586      2.782 
  1170.500     34.071      2.780 
  1171.000     35.697      2.772 
  1171.500     36.492      2.767 
  1172.000     35.902      2.765 
  1172.500     34.618      2.745 
  1173.000     31.743      2.740 
  1173.500     30.077      2.743 
  1174.000     26.688      2.761 
  1174.500     24.058      2.790 
  1175.000     21.824      2.812 
  1175.500     21.650      2.826 
  1176.000     21.674      2.839 
  1176.500     21.602      2.849 
  1177.000     21.659      2.854 
  1177.500     21.790      2.854 
  1178.000     22.519      2.849 
  1178.500     22.410      2.839 
  1179.000     22.444      2.830 
  1179.500     22.449      2.808 
  1180.000     22.434      2.807 
  1180.500     22.439      2.810 
  1181.000     22.432      2.815 
  1181.500     22.419      2.821 
  1182.000     22.452      2.820 
  1182.500     22.389      2.829 
  1183.000     22.401      2.832 
  1183.500     23.208      2.842 
  1184.000     24.982      2.856 
  1184.500     31.186      2.864 
  1185.000     34.706      2.865 
  1185.500     38.625      2.862 
  1186.000     41.068      2.828 
  1186.500     42.281      2.799 
  1187.000     41.754      2.763 
  1187.500     39.043      2.750 
  1188.000     38.039      2.740 
  1188.500     37.115      2.745 
  1189.000     36.615      2.749 
  1189.500     36.710      2.759 
  1190.000     37.542      2.765 
  1190.500     38.071      2.769 
  1191.000     36.626      2.770 
  1191.500     35.124      2.759 
  1192.000     34.172      2.748 
  1192.500     32.432      2.748 
  1193.000     30.870      2.759 
  1193.500     29.634      2.774 
  1194.000     28.190      2.778 
  1194.500     26.381      2.793 
  1195.000     26.995      2.802 
  1195.500     28.462      2.793 
  1196.000     30.424      2.789 
  1196.500     31.762      2.753 
  1197.000     34.625      2.747 
  1197.500     36.064      2.744 
  1198.000     39.462      2.745 
  1198.500     42.020      2.752 
  1199.000     41.577      2.760 
  1199.500     40.864      2.766 
  1200.000     41.605      2.767 
  1200.500     42.006      2.764 
  1201.000     42.141      2.759 
  1201.500     41.989      2.757 
  1202.000     41.366      2.749 
  1202.500     40.513      2.742 
  1203.000     40.298      2.731 
  1203.500     38.152      2.733 
  1204.000     36.073      2.740 
  1204.500     33.761      2.754 
  1205.000     30.405      2.763 
  1205.500     28.110      2.770 
  1206.000     26.397      2.783 
  1206.500     27.096      2.795 
  1207.000     28.697      2.790 
  1207.500     30.997      2.777 
  1208.000     32.531      2.771 
  1208.500     32.604      2.769 
  1209.000     31.182      2.776 
  1209.500     31.042      2.781 
  1210.000     30.692      2.785 
  1210.500     33.150      2.778 
  1211.000     35.020      2.768 
  1211.500     36.848      2.768 
  1212.000     38.074      2.768 
  1212.500     40.326      2.782 
  1213.000     40.531      2.788 
  1213.500     40.857      2.786 
  1214.000     40.489      2.785 
  1214.500     37.807      2.787 
  1215.000     32.571      2.800 
  1215.500     30.369      2.810 
  1216.000     28.836      2.825 
  1216.500     30.417      2.832 
  1217.000     31.086      2.820 
  1217.500     31.739      2.813 
  1218.000     34.066      2.798 
  1218.500     36.454      2.779 
  1219.000     38.037      2.765 
  1219.500     39.110      2.749 
  1220.000     40.934      2.740 
  1220.500     40.712      2.732 
  1221.000     38.828      2.721 
  1221.500     38.027      2.710 
  1222.000     34.999      2.716 
  1222.500     34.332      2.722 
  1223.000     33.594      2.722 
  1223.500     33.428      2.718 
  1224.000     33.544      2.710 
  1224.500     32.843      2.707 
  1225.000     32.446      2.704 
  1225.500     32.473      2.714 
  1226.000     32.609      2.720 
  1226.500     33.266      2.733 
  1227.000     32.466      2.727 
  1227.500     32.700      2.721 
  1228.000     31.539      2.718 
  1228.500     31.384      2.713 
  1229.000     28.736      2.720 
  1229.500     27.956      2.720 
  1230.000     27.088      2.722 
  1230.500     25.948      2.722 
  1231.000     25.575      2.727 
  1231.500     25.805      2.729 
  1232.000     28.397      2.734 
  1232.500     30.536      2.753 
  1233.000     29.629      2.765 
  1233.500     27.240      2.784 
  1234.000     25.732      2.798 
  1234.500     22.876      2.826 
  1235.000     21.959      2.835 
  1235.500     22.451      2.822 
  1236.000     22.549      2.804 
  1236.500     23.948      2.786 
  1237.000     26.091      2.744 
  1237.500     28.900      2.739 
  1238.000     30.377      2.728 
  1238.500     33.085      2.728 
  1239.000     33.427      2.739 
  1239.500     33.546      2.750 
  1240.000     33.351      2.753 
  1240.500     31.845      2.752 
  1241.000     30.637      2.747 
  1241.500     30.298      2.743 
  1242.000     30.147      2.740 
  1242.500     30.018      2.734 
  1243.000     30.808      2.725 
  1243.500     30.281      2.721 
  1244.000     30.397      2.723 
  1244.500     29.293      2.737 
  1245.000     26.748      2.754 
  1245.500     26.047      2.761 
  1246.000     24.834      2.769 
  1246.500     23.357      2.794 
  1247.000     22.446      2.815 
  1247.500     21.791      2.828 
  1248.000     21.578      2.834 
  1248.500     22.274      2.833 
  1249.000     22.507      2.824 
  1249.500     24.021      2.817 
  1250.000     25.690      2.810 
  1250.500     28.526      2.804 
  1251.000     30.190      2.794 
  1251.500     30.537      2.789 
  1252.000     30.681      2.780 
  1252.500     31.246      2.775 
  1253.000     30.383      2.782 
  1253.500     30.404      2.793 
  1254.000     30.315      2.795 
  1254.500     32.408      2.794 
  1255.000     33.191      2.777 
  1255.500     34.326      2.765 
  1256.000     35.091      2.752 
  1256.500     34.927      2.751 
  1257.000     33.616      2.750 
  1257.500     32.889      2.752 
  1258.000     32.611      2.752 
  1258.500     32.759      2.750 
  1259.000     32.103      2.749 
  1259.500     31.627      2.737 
  1260.000     31.520      2.730 
  1260.500     30.085      2.728 
  1261.000     28.700      2.730 
  1261.500     26.307      2.747 
  1262.000     26.358      2.768 
  1262.500     27.286      2.810 
  1263.000     29.446      2.817 
  1263.500     32.350      2.819 
  1264.000     34.291      2.812 
  1264.500     35.196      2.793 
  1265.000     34.919      2.751 
  1265.500     35.710      2.756 
  1266.000     35.839      2.752 
  1266.500     35.858      2.747 
  1267.000     35.897      2.740 
  1267.500     35.113      2.733 
  1268.000     33.518      2.722 
  1268.500     31.119      2.703 
  1269.000     28.132      2.709 
  1269.500     25.034      2.729 
  1270.000     22.767      2.750 
  1270.500     16.757      2.774 
  1271.000     15.176      2.786 
  1271.500     15.936      2.792 
  1272.000     16.380      2.794 
  1272.500     18.421      2.718 
  1273.000     19.301      2.723 
  1273.500     21.222      2.724 
  1274.000     22.986      2.731 
  1274.500     28.912      2.786 
  1275.000     30.346      2.777 
  1275.500     31.162      2.770 
  1276.000     34.050      2.757 
  1276.500     35.123      2.786 
  1277.000     36.679      2.802 
  1277.500     36.501      2.801 
  1278.000     36.487      2.790 
  1278.500     33.574      2.788 
  1279.000     31.978      2.789 
  1279.500     31.681      2.790 
