~Version Information Block
 VERS.                2.00:     CWLS LOG ASCII STANDARD - VERSION 2.000000
 WRAP.                  NO:     One Line Per Depth Step
#
~Well Information Block
#MNEM.UNIT                     Data                         Information
#----------   ------------------------------------------   ----------------
 STRT.FT                                      100.0000:
 STOP.FT                                     5300.0000:
 STEP.FT                                        0.5000:
 NULL.                                       -999.2500:
 COMP.                                                :     COMPANY
 WELL.                                                :     WELL
 FLD .                                                :     FIELD
 CNTY.                                                :     COUNTY
 STAT.                                                :     STATE
 CTRY.                                                :     COUNTRY
 SRVC.                                                :     SERVICE COMPANY
 DATE.                                                :     DATE
 API .                                                :     API NUMBER
 UWI .                                                :     UWI NUMBER
#
~Curve Information Block
#MNEM.UNIT       API CODE      Curve Description
#----------    -------------   -------------------
 DEPT.FT                   :   Depth in Feet
 GR  .GAPI                 :   Gamma Ray
 RHOB.G/C3                 :   Bulk Density
#
~A  DEPTH         GR       RHOB  
# ...
  3168.000    130.789      2.404 
  3168.500    131.739      2.650 
  3169.000    134.832      2.642 
  3169.500    137.234      2.642 
  3170.000    138.938      2.640 
  3170.500    139.220      2.609 
  3171.000    137.258      2.541 
  3171.500    131.875      2.467 
  3172.000    126.623      2.423 
  3172.500    119.566      2.553 
  3173.000    113.588      2.625 
  3173.500    103.980      2.660 
  3174.000     97.061      2.641 
  3174.500     86.239      2.628 
  3175.000     86.005      2.648 
  3175.500     90.550      2.669 
  3176.000     96.120      2.700 
  3176.500    100.061      2.695 
  3177.000    105.413      2.649 
  3177.500    107.885      2.565 
  3178.000    113.833      2.578 
  3178.500    119.597      2.663 
  3179.000    121.001      2.668 
  3179.500    120.491      2.667 
  3180.000    118.628      2.669 
  3180.500    117.779      2.676 
  3181.000    118.810      2.682 
  3181.500    118.528      2.686 
  3182.000    109.751      2.682 
  3182.500     99.982      2.675 
  3183.000     98.013      2.665 
  3183.500     98.511      2.672 
  3184.000    101.642      2.642 
  3184.500    116.894      2.589 
  3185.000    120.009      2.593 
  3185.500    120.937      2.603 
  3186.000    111.949      2.625 
  3186.500    100.001      2.651 
  3187.000     98.211      2.661 
  3187.500     98.052      2.685 
  3188.000    107.088      2.653 
  3188.500    113.079      2.639 
  3189.000    121.901      2.670 
  3189.500    128.413      2.756 
  3190.000    132.923      2.752 
  3190.500    137.082      2.562 
  3191.000    138.453      2.433 
  3191.500    136.442      2.201 
  3192.000    123.884      2.219 
  3192.500    110.066      2.464 
  3193.000    108.002      2.521 
  3193.500    108.410      2.664 
  3194.000    110.560      2.560 
  3194.500    124.057      2.389 
  3195.000    136.711      2.343 
  3195.500    140.596      2.326 
  3196.000    141.436      2.391 
  3196.500    141.446      2.481 
  3197.000    139.120      2.391 
  3197.500    135.466      2.325 
  3198.000    132.982      2.242 
  3198.500    121.638      2.068 
  3199.000    112.482      2.158 
  3199.500    100.449      2.477 
  3200.000    102.886      2.552 
  3200.500    109.243      2.383 
  3201.000    117.836      2.168 
  3201.500    121.937      2.230 
  3202.000    125.005      2.636 
  3202.500    126.502      2.734 
  3203.000    128.675      2.689 
  3203.500    132.003      2.607 
  3204.000    136.772      2.619 
  3204.500    140.419      2.697 
  3205.000    141.058      2.711 
  3205.500    141.661      2.705 
  3206.000    140.684      2.603 
  3206.500    136.967      2.356 
  3207.000    127.844      2.279 
  3207.500    124.457      2.216 
  3208.000    114.364      2.224 
  3208.500    111.270      2.444 
  3209.000    105.872      2.560 
  3209.500     97.984      2.569 
  3210.000     88.554      2.603 
  3210.500     78.286      2.630 
  3211.000     63.993      2.623 
  3211.500     76.012      2.628 
  3212.000    102.011      2.446 
  3212.500    115.896      2.345 
  3213.000    141.833      2.304 
  3213.500    142.400      2.262 
  3214.000    134.751      2.212 
  3214.500    106.762      2.310 
  3215.000     96.284      2.460 
  3215.500     89.674      2.591 
  3216.000     89.282      2.672 
  3216.500     97.372      2.619 
  3217.000    103.772      2.562 
  3217.500    113.489      2.370 
  3218.000    121.899      2.415 
  3218.500    124.409      2.574 
  3219.000    125.247      2.635 
  3219.500    127.198      2.613 
  3220.000    127.157      2.565 
  3220.500    123.315      2.477 
  3221.000    118.837      2.423 
  3221.500    111.129      2.380 
  3222.000    107.385      2.501 
  3222.500    109.243      2.470 
  3223.000    112.454      2.413 
  3223.500    122.026      2.358 
  3224.000    125.973      2.333 
  3224.500    130.080      2.416 
  3225.000    129.826      2.441 
  3225.500    128.352      2.511 
  3226.000    127.611      2.647 
  3226.500    127.225      2.626 
  3227.000    126.425      2.471 
  3227.500    124.276      2.413 
  3228.000    119.783      2.445 
  3228.500    119.282      2.400 
  3229.000    119.763      2.305 
  3229.500    121.655      2.323 
  3230.000    123.428      2.365 
  3230.500    121.727      2.600 
  3231.000    114.278      2.589 
  3231.500    102.833      2.600 
  3232.000     97.366      2.608 
  3232.500     94.757      2.623 
  3233.000     95.285      2.645 
  3233.500     96.824      2.671 
  3234.000     98.928      2.710 
  3234.500    107.842      2.693 
  3235.000    124.707      2.635 
  3235.500    127.812      2.548 
  3236.000    133.944      2.467 
  3236.500    133.693      2.333 
  3237.000    126.721      2.354 
  3237.500    120.720      2.429 
  3238.000    117.539      2.549 
  3238.500    110.759      2.676 
  3239.000    110.668      2.669 
  3239.500    114.744      2.685 
  3240.000    123.099      2.689 
  3240.500    133.431      2.712 
  3241.000    139.178      2.730 
  3241.500    143.533      2.813 
  3242.000    144.707      2.817 
  3242.500    140.521      2.756 
  3243.000    137.185      2.655 
  3243.500    135.736      2.597 
  3244.000    137.536      2.568 
  3244.500    138.163      2.541 
  3245.000    135.584      2.545 
  3245.500    133.423      2.579 
  3246.000    130.496      2.588 
  3246.500    130.972      2.566 
  3247.000    131.707      2.511 
  3247.500    130.448      2.460 
  3248.000    128.608      2.428 
  3248.500    121.744      2.201 
  3249.000    120.030      2.301 
  3249.500    119.933      2.346 
  3250.000    121.326      2.567 
  3250.500    126.262      2.557 
  3251.000    131.683      2.483 
  3251.500    133.177      2.474 
  3252.000    134.849      2.445 
  3252.500    137.043      2.417 
  3253.000    132.821      2.340 
  3253.500    125.426      2.351 
  3254.000    112.524      2.461 
  3254.500     98.568      2.631 
  3255.000     93.838      2.633 
  3255.500     90.871      2.647 
  3256.000     93.232      2.646 
  3256.500    100.937      2.642 
  3257.000    105.522      2.644 
  3257.500    106.160      2.656 
  3258.000    102.677      2.663 
  3258.500    100.132      2.687 
  3259.000    101.531      2.716 
  3259.500    101.924      2.772 
  3260.000    119.478      2.789 
  3260.500    125.230      2.507 
  3261.000    123.656      2.416 
  3261.500    120.259      2.463 
  3262.000    113.927      2.539 
  3262.500    100.832      2.613 
  3263.000     91.789      2.631 
  3263.500     86.288      2.656 
  3264.000     84.115      2.669 
  3264.500     89.368      2.673 
  3265.000     94.604      2.668 
  3265.500    101.447      2.653 
  3266.000     96.993      2.648 
  3266.500     87.053      2.634 
  3267.000     75.558      2.655 
  3267.500     69.938      2.623 
  3268.000     83.370      2.568 
  3268.500    116.486      2.398 
  3269.000    127.085      2.161 
  3269.500    134.290      2.103 
  3270.000    137.409      2.197 
  3270.500    138.325      2.452 
  3271.000    141.148      2.517 
  3271.500    144.104      2.466 
  3272.000    143.597      2.448 
  3272.500    143.802      2.491 
  3273.000    143.915      2.495 
  3273.500    144.438      2.499 
  3274.000    144.968      2.499 
  3274.500    141.190      2.485 
  3275.000    140.497      2.409 
  3275.500    133.469      2.338 
  3276.000    124.950      2.254 
  3276.500    116.383      2.150 
  3277.000    106.311      2.383 
  3277.500    100.911      2.644 
  3278.000    105.471      2.746 
  3278.500    118.956      2.628 
  3279.000    132.252      2.450 
  3279.500    141.587      2.407 
  3280.000    144.878      2.448 
  3280.500    144.250      2.536 
  3281.000    143.002      2.487 
  3281.500    140.601      2.435 
  3282.000    139.355      2.387 
  3282.500    136.257      2.306 
  3283.000    132.607      2.438 
  3283.500    131.063      2.472 
  3284.000    131.670      2.508 
  3284.500    133.841      2.498 
  3285.000    129.911      2.382 
  3285.500    123.514      2.293 
