~Version Information Block
 VERS.                2.00:     CWLS LOG ASCII STANDARD - VERSION 2.000000
 WRAP.                  NO:     One Line Per Depth Step
#
~Well Information Block
#MNEM.UNIT                     Data                         Information
#----------   ------------------------------------------   ----------------
 STRT.FT                                      100.0000:
 STOP.FT                                     5300.0000:
 STEP.FT                                        0.5000:
 NULL.                                       -999.2500:
 COMP.                                                :     COMPANY
 WELL.                                                :     WELL
 FLD .                                                :     FIELD
 CNTY.                                                :     COUNTY
 STAT.                                                :     STATE
 CTRY.                                                :     COUNTRY
 SRVC.                                                :     SERVICE COMPANY
 DATE.                                                :     DATE
 API .                                                :     API NUMBER
 UWI .                                                :     UWI NUMBER
#
~Curve Information Block
#MNEM.UNIT       API CODE      Curve Description
#----------    -------------   -------------------
 DEPT.FT                   :   Depth in Feet
 GR  .GAPI                 :   Gamma Ray
 RHOB.G/C3                 :   Bulk Density
#
~A  DEPTH         GR       RHOB  
# ...
  1752.000     48.302      2.766 
  1752.500     45.416      2.783 
  1753.000     43.712      2.793 
  1753.500     57.232      2.797 
  1754.000     62.611      2.789 
  1754.500     93.691      2.749 
  1755.000    102.555      2.706 
  1755.500    120.693      2.687 
  1756.000    123.686      2.678 
  1756.500    126.547      2.677 
  1757.000    123.686      2.681 
  1757.500    120.157      2.689 
  1758.000    117.498      2.699 
  1758.500    113.418      2.708 
  1759.000    111.507      2.714 
  1759.500    105.490      2.717 
  1760.000    100.523      2.718 
  1760.500     94.010      2.707 
  1761.000     91.904      2.699 
  1761.500     95.388      2.690 
  1762.000    100.850      2.686 
  1762.500    108.549      2.680 
  1763.000    106.682      2.675 
  1763.500    100.677      2.672 
  1764.000     94.875      2.673 
  1764.500     87.958      2.679 
  1765.000     83.831      2.695 
  1765.500     80.788      2.704 
  1766.000     75.882      2.709 
  1766.500     69.615      2.701 
  1767.000     66.580      2.706 
  1767.500     64.270      2.711 
  1768.000     69.516      2.716 
  1768.500     75.377      2.701 
  1769.000     78.765      2.692 
  1769.500     79.367      2.691 
  1770.000     71.952      2.710 
  1770.500     58.880      2.731 
  1771.000     53.364      2.748 
  1771.500     51.387      2.752 
  1772.000     52.284      2.748 
  1772.500     57.607      2.738 
  1773.000     65.696      2.739 
  1773.500     73.389      2.743 
  1774.000     82.908      2.746 
  1774.500     93.223      2.734 
  1775.000     98.433      2.708 
  1775.500    104.382      2.697 
  1776.000    104.993      2.695 
  1776.500    103.758      2.700 
  1777.000    104.269      2.701 
  1777.500    105.944      2.700 
  1778.000    107.500      2.698 
  1778.500    107.273      2.692 
  1779.000    106.580      2.687 
  1779.500    104.608      2.682 
  1780.000     99.895      2.686 
  1780.500     93.308      2.692 
  1781.000     84.016      2.698 
  1781.500     76.444      2.695 
  1782.000     79.154      2.690 
  1782.500     89.825      2.686 
  1783.000     94.417      2.682 
  1783.500    103.558      2.657 
  1784.000    104.578      2.662 
  1784.500     95.816      2.685 
  1785.000     79.318      2.698 
  1785.500     69.736      2.709 
  1786.000     70.943      2.739 
  1786.500     75.432      2.761 
  1787.000     80.256      2.745 
  1787.500     83.859      2.733 
  1788.000     87.007      2.713 
  1788.500     90.788      2.708 
  1789.000     94.118      2.702 
  1789.500     96.979      2.695 
  1790.000     99.594      2.687 
  1790.500    100.763      2.678 
  1791.000     99.656      2.670 
  1791.500     99.663      2.670 
  1792.000     95.129      2.676 
  1792.500     84.818      2.686 
  1793.000     80.416      2.694 
  1793.500     75.284      2.696 
  1794.000     72.156      2.693 
  1794.500     67.704      2.687 
  1795.000     66.781      2.695 
  1795.500     68.929      2.698 
  1796.000     75.015      2.701 
  1796.500     90.770      2.697 
  1797.000    100.225      2.693 
  1797.500    100.313      2.686 
  1798.000    101.838      2.678 
  1798.500     81.424      2.687 
  1799.000     68.752      2.701 
  1799.500     65.347      2.726 
  1800.000     69.368      2.745 
  1800.500     79.548      2.730 
  1801.000     87.803      2.712 
  1801.500     90.669      2.704 
  1802.000     95.128      2.701 
  1802.500     95.554      2.704 
  1803.000     95.821      2.707 
  1803.500     93.084      2.709 
  1804.000     90.198      2.716 
  1804.500     87.184      2.727 
  1805.000     84.627      2.731 
  1805.500     82.388      2.729 
  1806.000     80.939      2.727 
  1806.500     81.636      2.729 
  1807.000     81.182      2.729 
  1807.500     82.912      2.727 
  1808.000     85.235      2.722 
  1808.500     90.150      2.713 
  1809.000     93.542      2.704 
  1809.500     95.753      2.701 
  1810.000     98.234      2.698 
  1810.500    103.053      2.696 
  1811.000     96.853      2.688 
  1811.500     90.301      2.680 
  1812.000     77.144      2.678 
  1812.500     56.446      2.683 
  1813.000     58.039      2.685 
  1813.500     59.672      2.686 
  1814.000     63.896      2.688 
  1814.500     65.379      2.695 
  1815.000     65.771      2.702 
  1815.500     67.964      2.707 
  1816.000     70.217      2.711 
  1816.500     72.158      2.712 
  1817.000     70.753      2.739 
  1817.500     68.117      2.743 
  1818.000     65.014      2.764 
  1818.500     62.305      2.758 
  1819.000     58.574      2.743 
  1819.500     55.400      2.725 
  1820.000     52.299      2.708 
  1820.500     51.825      2.694 
  1821.000     50.878      2.698 
  1821.500     50.713      2.710 
  1822.000     52.143      2.734 
  1822.500     58.403      2.746 
  1823.000     65.736      2.734 
  1823.500     70.432      2.730 
  1824.000     70.219      2.731 
  1824.500     68.139      2.737 
  1825.000     68.347      2.746 
  1825.500     69.655      2.726 
  1826.000     70.650      2.716 
  1826.500     69.551      2.704 
  1827.000     63.900      2.703 
  1827.500     59.659      2.704 
  1828.000     56.876      2.716 
  1828.500     50.880      2.731 
  1829.000     45.035      2.743 
  1829.500     46.312      2.751 
  1830.000     50.478      2.761 
  1830.500     60.798      2.739 
  1831.000     68.057      2.715 
  1831.500     71.696      2.699 
  1832.000     71.788      2.698 
  1832.500     69.440      2.702 
  1833.000     69.764      2.712 
  1833.500     71.148      2.724 
  1834.000     79.498      2.729 
  1834.500     90.146      2.711 
  1835.000     98.692      2.695 
  1835.500    100.968      2.679 
  1836.000    105.223      2.678 
  1836.500     99.544      2.684 
  1837.000     82.004      2.704 
  1837.500     71.498      2.717 
  1838.000     64.519      2.738 
  1838.500     71.986      2.733 
  1839.000     73.769      2.715 
  1839.500     73.708      2.704 
  1840.000     72.370      2.702 
  1840.500     68.494      2.724 
  1841.000     64.789      2.740 
  1841.500     60.548      2.758 
  1842.000     56.418      2.764 
  1842.500     74.146      2.773 
  1843.000     87.356      2.761 
  1843.500    103.649      2.748 
  1844.000    111.819      2.722 
  1844.500    112.689      2.701 
  1845.000    101.888      2.705 
  1845.500     91.631      2.707 
  1846.000     87.698      2.716 
  1846.500     87.223      2.704 
  1847.000     93.849      2.702 
  1847.500     97.860      2.700 
  1848.000     99.145      2.714 
  1848.500     93.297      2.723 
  1849.000     88.270      2.724 
  1849.500     82.470      2.728 
  1850.000     75.770      2.729 
  1850.500     65.667      2.728 
  1851.000     57.822      2.733 
  1851.500     53.621      2.740 
  1852.000     53.042      2.740 
  1852.500     53.149      2.732 
  1853.000     52.253      2.712 
  1853.500     50.897      2.710 
  1854.000     49.527      2.709 
  1854.500     59.923      2.718 
  1855.000     72.067      2.726 
  1855.500     86.274      2.735 
  1856.000     99.885      2.734 
  1856.500    113.775      2.712 
  1857.000    125.508      2.697 
  1857.500    125.486      2.682 
  1858.000    119.820      2.681 
  1858.500    107.562      2.693 
  1859.000     98.278      2.703 
  1859.500     92.423      2.718 
  1860.000     84.839      2.715 
  1860.500     83.256      2.711 
  1861.000     82.159      2.716 
  1861.500     82.361      2.723 
  1862.000     82.146      2.729 
  1862.500     83.328      2.726 
  1863.000     85.798      2.708 
  1863.500     85.468      2.697 
  1864.000     84.256      2.691 
  1864.500     77.693      2.689 
  1865.000     68.815      2.714 
  1865.500     58.970      2.737 
  1866.000     55.148      2.763 
  1866.500     43.105      2.788 
  1867.000     36.676      2.807 
  1867.500     34.066      2.829 
  1868.000     32.597      2.815 
  1868.500     37.088      2.737 
  1869.000     42.848      2.707 
  1869.500     48.457      2.693 
