~Version Information Block
 VERS.                2.00:     CWLS LOG ASCII STANDARD - VERSION 2.000000
 WRAP.                  NO:     One Line Per Depth Step
#
~Well Information Block
#MNEM.UNIT                     Data                         Information
#----------   ------------------------------------------   ----------------
 STRT.FT                                      100.0000:
 STOP.FT                                     5300.0000:
 STEP.FT                                        0.5000:
 NULL.                                       -999.2500:
 COMP.                                                :     COMPANY
 WELL.                                                :     WELL
 FLD .                                                :     FIELD
 CNTY.                                                :     COUNTY
 STAT.                                                :     STATE
 CTRY.                                                :     COUNTRY
 SRVC.                                                :     SERVICE COMPANY
 DATE.                                                :     DATE
 API .                                                :     API NUMBER
 UWI .                                                :     UWI NUMBER
#
~Curve Information Block
#MNEM.UNIT       API CODE      Curve Description
#----------    -------------   -------------------
 DEPT.FT                   :   Depth in Feet
 GR  .GAPI                 :   Gamma Ray
 RHOB.G/C3                 :   Bulk Density
#
~A  DEPTH         GR       RHOB  
# ...
  4820.000    117.082      2.622 
  4820.500    111.586      2.737 
  4821.000    109.028      2.729 
  4821.500    109.529      2.709 
  4822.000    110.545      2.701 
  4822.500    112.992      2.751 
  4823.000    115.739      2.766 
  4823.500    118.027      2.780 
  4824.000    118.490      2.738 
  4824.500    118.682      2.590 
  4825.000    119.575      2.590 
  4825.500    119.383      2.601 
  4826.000    118.179      2.732 
  4826.500    118.349      2.725 
  4827.000    120.964      2.737 
  4827.500    124.819      2.655 
  4828.000    126.498      2.619 
  4828.500    128.163      2.639 
  4829.000    125.535      2.687 
  4829.500    123.105      2.726 
  4830.000    123.533      2.724 
  4830.500    124.314      2.543 
  4831.000    123.355      2.505 
  4831.500    121.128      2.370 
  4832.000    117.386      2.335 
  4832.500    112.818      2.321 
  4833.000    110.238      2.345 
  4833.500    109.273      2.394 
  4834.000    109.625      2.483 
  4834.500    111.157      2.668 
  4835.000    110.759      2.612 
  4835.500    108.993      2.522 
  4836.000    106.733      2.408 
  4836.500    104.118      2.486 
  4837.000    106.243      2.615 
  4837.500    111.555      2.620 
  4838.000    114.791      2.563 
  4838.500    120.814      2.567 
  4839.000    122.334      2.586 
  4839.500    121.196      2.579 
  4840.000    118.922      2.535 
  4840.500    116.295      2.488 
  4841.000    114.687      2.501 
  4841.500    114.503      2.516 
  4842.000    117.686      2.546 
  4842.500    121.369      2.588 
  4843.000    124.190      2.576 
  4843.500    124.231      2.547 
  4844.000    119.798      2.475 
  4844.500    118.567      2.392 
  4845.000    115.301      2.339 
  4845.500    114.497      2.302 
  4846.000    115.440      2.287 
  4846.500    117.625      2.388 
  4847.000    117.871      2.465 
  4847.500    116.017      2.552 
  4848.000    116.269      2.618 
  4848.500    117.968      2.595 
  4849.000    118.235      2.552 
  4849.500    119.369      2.526 
  4850.000    119.856      2.535 
  4850.500    119.514      2.438 
  4851.000    117.122      2.395 
  4851.500    114.596      2.336 
  4852.000    112.237      2.337 
  4852.500    111.435      2.473 
  4853.000    110.803      2.592 
  4853.500    110.052      2.647 
  4854.000    109.093      2.622 
  4854.500    108.045      2.607 
  4855.000    108.843      2.631 
  4855.500    110.243      2.651 
  4856.000    114.228      2.642 
  4856.500    117.746      2.557 
  4857.000    118.468      2.478 
  4857.500    118.920      2.493 
  4858.000    117.042      2.526 
  4858.500    115.759      2.492 
  4859.000    116.889      2.467 
  4859.500    116.876      2.429 
  4860.000    116.859      2.422 
  4860.500    114.523      2.439 
  4861.000    115.324      2.534 
  4861.500    115.281      2.565 
  4862.000    115.083      2.735 
  4862.500    113.780      2.706 
  4863.000    114.788      2.600 
  4863.500    116.106      2.526 
  4864.000    117.710      2.428 
  4864.500    116.844      2.433 
  4865.000    116.064      2.582 
  4865.500    112.810      2.673 
  4866.000    112.539      2.695 
  4866.500    109.818      2.676 
  4867.000    111.531      2.657 
  4867.500    115.447      2.656 
  4868.000    118.001      2.652 
  4868.500    116.119      2.490 
  4869.000    110.014      2.446 
  4869.500    104.278      2.457 
  4870.000    101.397      2.547 
  4870.500    105.477      2.587 
  4871.000    108.144      2.595 
  4871.500    111.325      2.599 
  4872.000    111.073      2.608 
  4872.500    109.064      2.611 
  4873.000    106.870      2.584 
  4873.500    105.076      2.573 
  4874.000    104.186      2.563 
  4874.500    104.842      2.562 
  4875.000    107.112      2.547 
  4875.500    111.112      2.539 
  4876.000    113.719      2.534 
  4876.500    114.586      2.545 
  4877.000    115.139      2.558 
  4877.500    116.044      2.573 
  4878.000    117.983      2.587 
  4878.500    119.568      2.553 
  4879.000    120.172      2.531 
  4879.500    119.892      2.494 
  4880.000    118.913      2.415 
  4880.500    117.686      2.469 
  4881.000    117.063      2.464 
  4881.500    117.113      2.505 
  4882.000    118.185      2.480 
  4882.500    120.854      2.437 
  4883.000    121.875      2.354 
  4883.500    121.475      2.389 
  4884.000    120.472      2.431 
  4884.500    117.906      2.488 
  4885.000    115.027      2.479 
  4885.500    111.706      2.433 
  4886.000    108.528      2.406 
  4886.500    104.987      2.415 
  4887.000    105.911      2.451 
  4887.500    110.264      2.393 
  4888.000    114.475      2.368 
  4888.500    116.423      2.405 
  4889.000    115.395      2.460 
  4889.500    115.465      2.442 
  4890.000    114.883      2.377 
  4890.500    115.222      2.346 
  4891.000    115.136      2.380 
  4891.500    114.764      2.417 
  4892.000    114.693      2.433 
  4892.500    113.521      2.443 
  4893.000    112.667      2.464 
  4893.500    112.953      2.483 
  4894.000    112.033      2.478 
  4894.500    112.542      2.449 
  4895.000    111.403      2.406 
  4895.500    112.617      2.454 
  4896.000    113.261      2.539 
  4896.500    116.232      2.469 
  4897.000    119.713      2.475 
  4897.500    120.016      2.444 
  4898.000    118.816      2.417 
  4898.500    118.498      2.113 
  4899.000    116.502      2.125 
  4899.500    114.579      2.247 
  4900.000    112.964      2.394 
  4900.500    111.525      2.556 
  4901.000    110.884      2.626 
  4901.500    109.914      2.732 
  4902.000    109.843      2.779 
  4902.500    110.101      2.756 
  4903.000    111.748      2.709 
  4903.500    114.377      2.672 
  4904.000    118.150      2.689 
  4904.500    123.024      2.639 
  4905.000    123.325      2.648 
  4905.500    120.998      2.482 
  4906.000    115.084      2.401 
  4906.500    110.831      2.469 
  4907.000    111.059      2.528 
  4907.500    113.440      2.612 
  4908.000    114.188      2.602 
  4908.500    118.043      2.624 
  4909.000    118.491      2.534 
  4909.500    118.450      2.423 
  4910.000    119.094      2.250 
  4910.500    120.210      2.344 
  4911.000    121.175      2.562 
  4911.500    121.384      2.638 
  4912.000    119.508      2.666 
  4912.500    117.045      2.499 
  4913.000    115.676      2.374 
  4913.500    113.787      2.232 
  4914.000    113.350      2.242 
  4914.500    111.230      2.236 
  4915.000    109.079      2.209 
  4915.500    106.498      2.164 
  4916.000    105.907      2.142 
  4916.500    105.645      1.881 
  4917.000    108.072      1.993 
  4917.500    108.825      1.999 
  4918.000    110.928      2.321 
  4918.500    110.557      2.528 
  4919.000    113.218      2.681 
  4919.500    116.926      2.636 
  4920.000    121.984      2.475 
  4920.500    120.584      2.550 
  4921.000    118.862      2.305 
  4921.500    113.915      1.872 
  4922.000    111.485      1.828 
  4922.500    108.735      2.032 
  4923.000    107.580      2.007 
  4923.500    108.048      2.124 
  4924.000    108.333      2.252 
  4924.500    109.990      2.568 
  4925.000    113.302      2.630 
  4925.500    118.064      2.634 
  4926.000    118.935      2.615 
  4926.500    118.641      2.553 
  4927.000    117.074      2.517 
  4927.500    116.283      2.505 
  4928.000    116.449      2.447 
  4928.500    115.349      2.442 
  4929.000    114.381      2.518 
  4929.500    112.943      2.580 
  4930.000    112.148      2.516 
  4930.500    112.147      2.465 
  4931.000    112.967      2.407 
  4931.500    115.297      2.280 
  4932.000    116.921      2.294 
  4932.500    116.092      2.434 
  4933.000    115.953      2.495 
  4933.500    118.370      2.490 
  4934.000    120.100      2.479 
  4934.500    121.125      2.475 
  4935.000    119.473      2.458 
  4935.500    117.526      2.443 
  4936.000    115.977      2.230 
  4936.500    116.032      2.217 
  4937.000    115.298      2.305 
  4937.500    114.840      2.519 
