~Version Information Block
 VERS.                2.00:     CWLS LOG ASCII STANDARD - VERSION 2.000000
 WRAP.                  NO:     One Line Per Depth Step
#
~Well Information Block
#MNEM.UNIT                     Data                         Information
#----------   ------------------------------------------   ----------------
 STRT.FT                                      100.0000:
 STOP.FT                                     5300.0000:
 STEP.FT                                        0.5000:
 NULL.                                       -999.2500:
 COMP.                                                :     COMPANY
 WELL.                                                :     WELL
 FLD .                                                :     FIELD
 CNTY.                                                :     COUNTY
 STAT.                                                :     STATE
 CTRY.                                                :     COUNTRY
 SRVC.                                                :     SERVICE COMPANY
 DATE.                                                :     DATE
 API .                                                :     API NUMBER
 UWI .                                                :     UWI NUMBER
#
~Curve Information Block
#MNEM.UNIT       API CODE      Curve Description
#----------    -------------   -------------------
 DEPT.FT                   :   Depth in Feet
 GR  .GAPI                 :   Gamma Ray
 RHOB.G/C3                 :   Bulk Density
#
~A  DEPTH         GR       RHOB  
# ...
  1398.000     28.395      2.695 
  1398.500     31.886      2.694 
  1399.000     33.080      2.692 
  1399.500     34.644      2.689 
  1400.000     36.007      2.692 
  1400.500     35.015      2.687 
  1401.000     33.589      2.682 
  1401.500     32.292      2.681 
  1402.000     31.905      2.685 
  1402.500     31.880      2.686 
  1403.000     33.182      2.692 
  1403.500     34.217      2.691 
  1404.000     35.454      2.689 
  1404.500     36.781      2.691 
  1405.000     36.430      2.690 
  1405.500     37.521      2.687 
  1406.000     37.769      2.678 
  1406.500     38.344      2.671 
  1407.000     37.432      2.666 
  1407.500     35.812      2.666 
  1408.000     34.236      2.670 
  1408.500     31.034      2.676 
  1409.000     30.173      2.684 
  1409.500     27.072      2.683 
  1410.000     26.184      2.674 
  1410.500     22.888      2.665 
  1411.000     23.815      2.654 
  1411.500     24.643      2.656 
  1412.000     28.559      2.656 
  1412.500     33.722      2.661 
  1413.000     39.725      2.664 
  1413.500     44.642      2.666 
  1414.000     50.433      2.673 
  1414.500     50.898      2.675 
  1415.000     51.757      2.691 
  1415.500     51.443      2.693 
  1416.000     52.561      2.694 
  1416.500     55.145      2.691 
  1417.000     57.073      2.684 
  1417.500     59.294      2.679 
  1418.000     60.951      2.680 
  1418.500     61.052      2.692 
  1419.000     61.073      2.696 
  1419.500     60.300      2.705 
  1420.000     56.571      2.706 
  1420.500     53.005      2.696 
  1421.000     50.292      2.692 
  1421.500     49.283      2.690 
  1422.000     47.842      2.688 
  1422.500     45.530      2.685 
  1423.000     44.545      2.675 
  1423.500     43.510      2.671 
  1424.000     42.292      2.670 
  1424.500     41.063      2.675 
  1425.000     40.528      2.686 
  1425.500     40.575      2.686 
  1426.000     40.544      2.687 
  1426.500     40.226      2.679 
  1427.000     38.753      2.677 
  1427.500     37.464      2.674 
  1428.000     37.579      2.672 
  1428.500     38.649      2.669 
  1429.000     40.957      2.670 
  1429.500     41.428      2.670 
  1430.000     42.933      2.673 
  1430.500     44.857      2.674 
  1431.000     45.339      2.674 
  1431.500     46.221      2.674 
  1432.000     43.438      2.673 
  1432.500     38.252      2.674 
  1433.000     33.132      2.674 
  1433.500     31.706      2.676 
  1434.000     30.190      2.677 
  1434.500     30.466      2.681 
  1435.000     31.239      2.685 
  1435.500     32.699      2.683 
  1436.000     33.647      2.681 
  1436.500     34.354      2.675 
  1437.000     34.132      2.671 
  1437.500     34.964      2.673 
  1438.000     36.734      2.678 
  1438.500     37.375      2.678 
  1439.000     38.016      2.675 
  1439.500     38.330      2.668 
  1440.000     39.237      2.670 
  1440.500     40.039      2.678 
  1441.000     41.805      2.689 
  1441.500     42.798      2.699 
  1442.000     42.686      2.703 
  1442.500     42.271      2.702 
  1443.000     40.271      2.700 
  1443.500     40.277      2.694 
  1444.000     35.124      2.693 
  1444.500     33.621      2.693 
  1445.000     31.189      2.693 
  1445.500     30.325      2.702 
  1446.000     28.459      2.702 
  1446.500     20.740      2.733 
  1447.000     13.868      2.742 
  1447.500      9.696      2.738 
  1448.000      8.743      2.732 
  1448.500      7.288      2.715 
  1449.000      7.664      2.713 
  1449.500      8.329      2.710 
  1450.000      8.206      2.710 
  1450.500      8.272      2.702 
  1451.000      8.266      2.693 
  1451.500      8.262      2.686 
  1452.000      8.269      2.681 
  1452.500      8.266      2.683 
  1453.000      8.277      2.690 
  1453.500      8.251      2.702 
  1454.000      8.274      2.703 
  1454.500      8.393      2.705 
  1455.000      9.207      2.702 
  1455.500      8.376      2.690 
  1456.000      8.418      2.684 
  1456.500      9.161      2.678 
  1457.000      8.815      2.673 
  1457.500      8.584      2.672 
  1458.000      8.860      2.675 
  1458.500      9.034      2.685 
  1459.000      9.068      2.687 
  1459.500      9.233      2.689 
  1460.000     12.266      2.690 
  1460.500     18.275      2.691 
  1461.000     23.775      2.692 
  1461.500     28.988      2.695 
  1462.000     29.540      2.704 
  1462.500     31.103      2.705 
  1463.000     31.060      2.702 
  1463.500     31.145      2.694 
  1464.000     31.259      2.689 
  1464.500     31.979      2.683 
  1465.000     31.869      2.676 
  1465.500     31.893      2.673 
  1466.000     31.901      2.674 
  1466.500     31.892      2.674 
  1467.000     31.887      2.677 
  1467.500     31.902      2.677 
  1468.000     31.904      2.677 
  1468.500     31.756      2.677 
  1469.000     30.860      2.671 
  1469.500     30.198      2.670 
  1470.000     28.702      2.669 
  1470.500     27.663      2.668 
  1471.000     27.179      2.657 
  1471.500     27.193      2.645 
  1472.000     27.010      2.637 
  1472.500     26.124      2.641 
  1473.000     25.562      2.639 
  1473.500     25.640      2.635 
  1474.000     25.310      2.635 
  1474.500     26.076      2.636 
  1475.000     27.807      2.640 
  1475.500     26.837      2.649 
  1476.000     26.921      2.652 
  1476.500     26.101      2.651 
  1477.000     24.822      2.648 
  1477.500     24.082      2.647 
  1478.000     24.709      2.650 
  1478.500     24.538      2.651 
  1479.000     24.689      2.652 
  1479.500     24.017      2.649 
  1480.000     23.818      2.644 
  1480.500     23.021      2.631 
  1481.000     21.354      2.623 
  1481.500     20.652      2.622 
  1482.000     20.779      2.622 
  1482.500     15.531      2.620 
  1483.000     10.709      2.615 
  1483.500      4.960      2.610 
  1484.000     -0.326      2.586 
  1484.500      1.255      2.547 
  1485.000      3.704      2.486 
  1485.500      6.135      2.479 
  1486.000      8.544      2.512 
  1486.500     10.967      2.534 
  1487.000     13.391      2.551 
  1487.500     15.814      2.562 
  1488.000     18.247      2.577 
  1488.500     20.647      2.590 
  1489.000     23.078      2.603 
  1489.500     25.529      2.617 
  1490.000     27.765      2.630 
  1490.500     30.123      2.644 
  1491.000     30.267      2.652 
  1491.500     30.290      2.660 
  1492.000     28.761      2.660 
  1492.500     27.758      2.660 
  1493.000     27.185      2.662 
  1493.500     28.723      2.661 
  1494.000     30.973      2.664 
  1494.500     34.317      2.671 
  1495.000     37.048      2.678 
  1495.500     39.317      2.676 
  1496.000     40.509      2.669 
  1496.500     42.002      2.666 
  1497.000     42.308      2.666 
  1497.500     41.470      2.664 
  1498.000     40.340      2.666 
  1498.500     33.358      2.668 
  1499.000     29.809      2.674 
  1499.500     21.206      2.678 
  1500.000     21.641      2.680 
  1500.500     20.857      2.705 
  1501.000     21.396      2.715 
  1501.500     22.533      2.720 
  1502.000     22.319      2.698 
  1502.500     21.175      2.678 
  1503.000     19.048      2.674 
  1503.500     16.816      2.674 
  1504.000     15.553      2.676 
  1504.500     14.896      2.666 
  1505.000     15.294      2.662 
  1505.500     15.946      2.650 
  1506.000     16.927      2.647 
  1506.500     18.967      2.649 
  1507.000     20.924      2.652 
  1507.500     22.770      2.660 
  1508.000     23.196      2.668 
  1508.500     23.430      2.667 
  1509.000     22.938      2.663 
  1509.500     21.756      2.664 
  1510.000     20.718      2.668 
  1510.500     19.781      2.675 
  1511.000     19.166      2.671 
  1511.500     19.924      2.664 
  1512.000     20.220      2.662 
  1512.500     20.969      2.663 
  1513.000     20.822      2.669 
  1513.500     20.824      2.671 
  1514.000     20.951      2.669 
  1514.500     20.245      2.663 
  1515.000     20.272      2.659 
  1515.500     20.667      2.671 
